REPORTING YEAR,FACILITY NAME,LATITUDE,LONGITUDE,CITY NAME,COUNTY NAME,STATE,ZIP CODE,PARENT COMPANIES,GHG QUANTITY (METRIC TONS CO2e),SUBPARTS,GHGRP ID,REPORTED ADDRESS
2020,23rd and 3rd,40.663,-74,BROOKLYN,Kings,NY,11232,NEW YORK POWER AUTHORITY (100%),60751,"C,D",1000112,730 3rd Avenue
2020,48th Street Peaking Station,42.7553,-86.0853,HOLLAND,Allegan,MI,49423,CITY OF HOLLAND (100%),49111,"C,D",1001106,491 E 48TH ST
2020,59th Street,40.7711,-73.9911,NEW YORK,New York,NY,10019,CONSOLIDATED EDISON INC (100%),149814,C,1000766,850 12TH AVE
2020,74th Street,40.768,-73.9515,NEW YORK,New York,NY,10021,CONSOLIDATED EDISON INC (100%),174717,C,1000767,506 E 75TH ST
2020,A B Brown Generating Station,37.9053,-87.715,MOUNT VERNON,Posey,IN,47620,CENTERPOINT ENERGY INC (100%),2367454,D,1001033,8511 WELBORN ROAD
2020,A.J. Mihm Generating Station,46.793722,-88.616566,Pelkie,,MI,49958,WEC Energy Group Inc (100%),123271,C,1013527,816017 Sarya Road
2020,ADA COGENERATION,42.955455,-85.479053,ADA,KENT COUNTY,MI,49355,TA Ada Holdings LLC (100%),85743,C,1002731,7575 FULTON STREET EAST
2020,AES - PUERTO RICO COGENERATION PLANT,17.9451,-66.1503,GUAYAMA,GUAYAMA MUNICIPIO,PR,785,AES CORP (100%),3408334,C,1005310,"KM 142, RTE. #3 BO. JOBOS"
2020,AES Alamitos,33.7688,-118.1009,LONG BEACH,Los Angeles,CA,90803,AES CORP (100%),823063,"C,D",1001444,690 N STUDEBAKER ROAD
2020,AES HAWAII INC,21.301222,-158.107306,KAPOLEI,HONOLULU COUNTY,HI,96707,AES CORP (100%),1176425,C,1005972,91-086 KAOMI LP
2020,AES Huntington Beach,33.6436,-117.9788,HUNTINGTON BEACH,Orange,CA,92646,AES CORP (100%),516240,"C,D",1001447,21730 NEWLAND ST
2020,AES Redondo Beach,33.8504,-118.395,REDONDO BEACH,Los Angeles,CA,90277,AES CORP (100%),239601,D,1001450,1100 N HARBOR DRIVE
2020,AES Warrior Run,39.5944,-78.7456,CUMBERLAND,Allegany,MD,21502,AES CORP (100%),1108430,"C,D,PP",1001223,11600 MEXICO FARMS RD SE
2020,AG Energy,44.7258,-75.4417,Ogdensburg,ST. LAWRENCE COUNTY,NY,13669,AG ENERGY PARTNERS LP (100%),7322,"C,D",1007551,21 Entrance Avenue
2020,AIR LIQUIDE GEISMAR UTILITY SERVICES,30.21023,-90.99085,GEISMAR,ASCENSION PARISH,LA,70734,AMERICAN AIR LIQUIDE HOLDINGS INC (100%),113518,C,1003591,36183 HWY 30
2020,AL Sandersville,33.1189,-82.8608,WARTHEN,Washington,GA,31094,AL SANDERSVILLE LLC (100%),23914,D,1000129,1600 MILLS LINDSEY SCHOOL ROAD
2020,ALCOA INC - WARRICK OPERATIONS,37.915,-87.3328,NEWBURGH,WARRICK COUNTY,IN,47629,ALCOA CORP (100%),5359939,"C,D,F",1001877,
2020,AMEA Sylacauga Plant,33.1661,-86.2825,SYLACAUGA,Talladega,AL,35150,ALABAMA MUNICIPAL ELECTRIC AUTHORITY (100%),22399,D,1007178,125 THOMPSON LANE
2020,AMP Fremont Energy Center,41.3771,-83.1615,Fremont,SANDUSKY COUNTY,OH,43420,AMERICAN MUNICIPAL POWER INC (100%),1351767,D,1008730,1275 Miarer Rd
2020,ANIMAS POWER PLANT,36.72488,-108.19144,FARMINGTON,SAN JUAN COUNTY,NM,87401,CITY OF FARMINGTON (100%),1234,C,1005490,501 MCCORMICK SCHOOL ROAD
2020,APS Saguaro Power Plant,32.5517,-111.3,RED ROCK,Pinal,AZ,85245,PINNACLE WEST CAPITAL CORP (100%),81027,"C,D",1001423,MAIL POST 228
2020,APS West Phoenix Power Plant,33.4417,-112.1583,PHOENIX,Maricopa,AZ,85043,PINNACLE WEST CAPITAL CORP (100%),1657430,"C,D",1001422,4606 WEST HADLEY
2020,ASHLEY Energy LLC,38.63639,-90.18108,SAINT LOUIS,ST. LOUIS CITY,MO,63102,ASHLEY ENERGY LLC (100%),40125,C,1003496,1 ASHLEY STREET
2020,ASTORIA ENERGY LLC & ASTORIA ENERGY II LLC,40.7825,-73.8964,ASTORIA,QUEENS COUNTY,NY,11105,ASTORIA PROJECT PARTNERS LLC (100%),2198822,"C,D",1004576,17-10 STEINWAY ST
2020,Aberdeen Generating Station,45.45807,-98.50242,Aberdeen,BROWN COUNTY,SD,57401,NORTHWESTERN CORP (100%),19754,"C,D",1010630,421 30th Ave SW
2020,Acadia Power Station,30.4284,-92.4112,EUNICE,Acadia,LA,70535,CLECO CORPORATE HOLDINGS LLC (50%); ENTERGY CORP (50%),2133385,D,1001347,30385 CROWLEY EUNICE HWY
2020,Ackerman Combined Cycle,33.3806,-89.2039,ACKERMAN,Choctaw,MS,39735,,1183833,"C,D",1000125,2510 PENSACOLA ROAD
2020,"Advanced Tri-Gen Power Systems, LLC",40.843013,-89.564082,Mossville,PEORIA COUNTY,IL,61552,CATERPILLAR INC (100%),103914,C,1006553,1823 East Neal Lane
2020,Afton Generating Station,32.1134,-106.848,LA MESA,Dona Ana,NM,88044,PNM RESOURCES INC (100%),391490,"C,D",1006556,10100 WEST AFTON ROAD
2020,Agua Fria Generating Station,33.5542,-112.2161,GLENDALE,Maricopa,AZ,85303,SALT RIVER PROJECT AGRICULTURAL IMPROVEMENT & POWER DISTRICT (100%),201276,"C,D",1007206,7302 W NORTHERN AVE
2020,Agua Mansa Power,34.0414,-117.3603,COLTON,San Bernardino,CA,92324,CITY OF COLTON CA (100%),8745,D,1000423,2040 AGUA MANSA ROAD
2020,Air Products La Porte Facility,29.702,-95.071,La Porte,HARRIS COUNTY,TX,77571,AIR PRODUCTS & CHEMICALS INC (100%),97151,"C,D",1003160,10202 Strang Rd
2020,"Alaska Village Electric Cooperative, Inc.",61.17697,-149.87559,Anchorage,ANCHORAGE MUNICIPALITY,AK,99503,ALASKA VILLAGE ELECTRIC COOPERATIVE (100%),31203,C,1010937,4831 Eagle Street
2020,Alex Ty Cooke Generating Station,33.5211,-101.7906,LUBBOCK,Lubbock,TX,79404,CITY OF LUBBOCK TEXAS (100%),511,"C,D",1000955,3500 E SLATON HWY
2020,"Algonquin Power Sanger, LLC",36.68508,-119.55227,Sanger,FRESNO COUNTY,CA,93657,"Algonquin Power Sanger, LLC (100%)",28942,"C,D",1005044,1125 Muscat Avenue
2020,"Algonquin Power Windsor Locks, LLC",41.9227,-72.6255,WINDSOR LOCKS,Hartford,CT,6096,"Algonquin Power Windsor Locks, LLC (100%)",91698,"C,D",1006409,26 CANAL BANK RD
2020,Allegany Generating Station,42.5083,-78.0661,Portageville,Allegany,NY,14536,ALLIANCE ENERGY GROUP LLC (100%),8745,"C,D",1001217,11537 ROUTE 19A
2020,Allen,35.0742,-90.1439,MEMPHIS,Shelby,TN,38109,,1330986,"C,D",1000916,2574 PLANT RD
2020,Allen S King,45.03,-92.7786,OAK PARK HEIGHTS,Washington,MN,55003,XCEL ENERGY INC (100%),851803,"C,D",1000691,1103 KING PLANT RD
2020,Almond Power Plant,37.5739,-120.9854,MODESTO,Stanislaus,CA,95358,TURLOCK IRRIGATION DISTRICT (100%),138473,D,1007315,4500 CROWS LANDING ROAD
2020,Alpaca Energy LLC,41.663988,-76.808492,Canton,BRADFORD COUNTY,PA,17724,IMG MIDSTREAM LLC (100%),15067,C,1013070,220 Romaine Ln.
2020,Alpine Power Plant,45.063748,-84.825348,Elmira,OTSEGO COUNTY,MI,49730,WOLVERINE POWER SUPPLY COOPERATIVE INC (100%),447540,"C,D",1012152,7432 M-32
2020,Alsey Station,39.5697,-90.4362,ALSEY,Scott,IL,62694,PRAIRIE POWER INC (100%),19016,"C,D",1000417,331 Campbell Road
2020,AltaGas Ripon Energy Inc.,37.7313,-121.1161,Ripon,SAN JOAQUIN COUNTY,CA,95366,AltaGas Ripon Energy Inc (100%),3785,C,1001625,944 South Stockton Ave.
2020,Ames,42.0247,-93.6069,AMES,Story,IA,50010,CITY OF AMES (100%),178493,D,1005802,200 E 5TH ST
2020,Anadarko,35.0847,-98.23,ANADARKO,Caddo,OK,73005,WESTERN FARMERS ELECTRIC COOPERATIVE (100%),291846,"C,D",1000865,701 B NE 7TH ST
2020,Anclote Power Plant,28.1844,-82.7887,HOLIDAY,Pasco,FL,34691,DUKE ENERGY CORP (100%),1387049,"C,D",1007246,1729 BAILLIES BLUFF ROAD
2020,Angus Anson,43.6033,-96.6369,SIOUX FALLS,Minnehaha,SD,57101,XCEL ENERGY INC (100%),89891,"C,D",1001097,7100 EAST RICE ST
2020,Antelope Station,33.866995,-101.866362,ABERNATHY,HALE COUNTY,TX,79311,GOLDEN SPREAD ELECTRIC COOPERATIVE INC (100%),119216,C,1006652,1454 CR 315
2020,Antelope Valley,47.3714,-101.8344,BEULAH,Mercer,ND,58523,BASIN ELECTRIC POWER COOPERATIVE (100%),6237896,D,1001055,HWY 200
2020,Apache Station,32.0619,-109.8931,COCHISE,Cochise,AZ,85606,ARIZONA ELECTRIC POWER COOPERATIVE INC (100%),1587736,"C,D",1005949,3525 N US HWY 191
2020,Apex Generating Station,36.4178,-114.9622,LAS VEGAS,Clark,NV,89165,SOUTHERN CALIFORNIA PUBLIC POWER AUTHORITY (100%),1038842,"C,D",1000068,15555 APEX POWER PARKWAY
2020,Arapahoe Combustion Turbine Facility,39.6692,-105.0018,DENVER,Denver,CO,80223,SOUTHWEST GENERATION OPERATING CO LLC (100%),103867,"C,D",1001360,2601 SOUTH PLATTE RIVER ROAD
2020,Arlington Valley Energy Facility,33.3417,-112.8897,ARLINGTON,Maricopa,AZ,85322,ARLINGTON VALLEY LLC (100%),839092,"C,D",1001399,39027 W ELLIOT ROAD
2020,"Armstrong Power, LLC",40.6383,-79.3503,SHELOCTA,Armstrong,PA,15774,"LS Power Development, LLC (100%)",645232,D,1005709,2313 STATE ROUTE 156
2020,Arsenal Hill Power Plant,32.5181,-93.7611,SHREVEPORT,Caddo,LA,71101,AMERICAN ELECTRIC POWER CO INC (100%),1302541,D,1001609,520 NORTH ALLEN
2020,Arthur Kill,40.5915,-74.2027,Staten Island,Richmond,NY,10314,NRG ENERGY INC (100%),547356,"C,D",1000759,4401 VICTORY BLVD
2020,Arvah B Hopkins,30.4522,-84.4,TALLAHASSEE,Leon,FL,32304,CITY OF TALLAHASSEE (100%),709930,"C,D",1007189,1125 GEDDIE ROAD
2020,Asbury,37.3596,-94.5913,ASBURY,Jasper,MO,64832,LIBERTY UTILITIES CO (100%),0,D,1007311,21133 UPHILL LANE
2020,Asheville Steam Electric Plant,35.4714,-82.5431,ARDEN,Buncombe,NC,28704,DUKE ENERGY CORP (100%),1199524,"C,D",1007180,200 CP&L DRIVE
2020,Astoria Gas Turbine Power,40.7864,-73.9133,ASTORIA,Queens,NY,11105,NRG ENERGY INC (100%),15670,"C,D",1000132,31 01 20TH AVE
2020,Astoria Generating Station,40.7869,-73.9122,ASTORIA,Queens,NY,11105,ARCLIGHT CAPITAL HOLDINGS LLC (100%),486581,"C,D",1007053,18-01 20TH AVE
2020,Athens Generating Company,42.2728,-73.8492,ATHENS,Greene,NY,12015,TALEN ENERGY CORP (100%),760072,D,1000101,9300 U S HIGHWAY 9W
2020,Attala Generating Plant,33.0142,-89.6758,SALLIS,Attala,MS,39160,ENTERGY CORP (100%),751774,"C,D",1007247,2500 ATTALA ROAD 4130
2020,Audrain Power Plant,39.3092,-91.5369,VANDALIA,Audrain,MO,63382,AMEREN CORP (100%),14839,D,1001379,40897 HIGHWAY P
2020,Aurora Generating Station,41.8151,-88.2265,AURORA,Dupage,IL,60504,"LS Power Development, LLC (100%)",419430,"C,D",1001397,2909 NORTH EOLA ROAD
2020,Avon Lake Power Plant,41.5042,-82.05,AVON LAKE,Lorain,OH,44012,GENON ENERGY INC (100%),242008,"C,D",1000843,33570
2020,BADGER CREEK LIMITED,35.44735,-119.08652,BAKERSFIELD,KERN COUNTY,CA,93308,BADGER CREEK LTD (100%),9528,D,1002728,34759 LENCIONI AVE
2020,BARROW UTILITIES & ELECTRIC,71.292071,-156.77847,BARROW,NORTH SLOPE BOROUGH,AK,99723,BARROW UTILITIES & ELECTRIC COOPERATIVE INC (100%),43444,C,1005395,1295 AGVIK STREET
2020,BEACON HEATING,42.33811,-83.04382,DETROIT,WAYNE COUNTY,MI,48226,Detroit Thermal (100%),174526,C,1006384,541 MADISON STREET
2020,BEAR MOUNTAIN LIMITED,35.44735,-119.08652,BAKERSFIELD,KERN COUNTY,CA,93308,BEAR MOUNTAIN LTD (100%),21428,D,1006139,34759 LENCIONI AVE
2020,BELLEFIELD BOILER PLANT,40.442121,-79.949221,PITTSBURGH,ALLEGHENY COUNTY,PA,15213,BELLEFIELD BOILER PLANT (100%),47824,C,1005525,
2020,BERNICE LAKE,60.693619,-151.387377,NIKISKI,KENAI PENINSULA BOROUGH,AK,99635,HOMER ELECTRIC ASSOC INC (100%),5828,C,1005268,55244 CHEVRON REFINERY ROAD
2020,BP Whiting Business Unit,41.6703,-87.4803,WHITING,Lake,IN,46394,BP AMERICA INC (100%),1404521,"C,D,DD,MM,P,Y",1007339,2815 INDIANAPOLIS BLVD
2020,BUCKSPORT GENERATION LLC,44.574508,-68.804038,BUCKSPORT,HANCOCK COUNTY,ME,4416,AIM Development USA LLC (100%),2937,"C,D",1006174,30 Generation Lane
2020,Bacliff Generating Station,29.49596,-94.970803,Bacliff,,TX,77518,ROCKLAND CAPITAL LLC (100%),83210,D,1012447,5501 Highway 146
2020,Baconton,31.3869,-84.0819,BACONTON,Mitchell,GA,31716,SOWEGA ENERGY RESOURCES LLC (65%); TEJAS POWER GENERATION LLC (35%),78691,"C,D",1001409,2237 HATCHER HILL RD
2020,Bailly Generating Station,41.6433,-87.1225,CHESTERTON,Porter,IN,46304,NISOURCE INC (100%),0,C,1001537,246 BAILLY STATION ROAD
2020,Baldwin Energy Complex,38.205,-89.855,BALDWIN,Randolph,IL,62217,Vistra Corp (100%),4053532,"C,D",1007302,10901 BALDWIN RD
2020,Barney M. Davis,27.6067,-97.3119,Corpus Christi,Nueces,TX,78418,TALEN ENERGY CORP (100%),555877,"C,D",1000997,4301 Waldron Road
2020,Barry,31.0069,-88.0103,BUCKS,Mobile,AL,36512,THE SOUTHERN CO (100%),6217604,"C,D",1001412,15300 Highway 43 North
2020,Basin Creek Plant,45.92942,-112.52462,Butte,SILVER BOW COUNTY,MT,59701,MAXIM POWER USA INC (94.89%); BASIN CREEK POWER SERVICES LLC (5.11%),28315,C,1011063,500 Nils Drive
2020,Bastrop Clean Energy Center,30.1458,-97.55,CEDAR CREEK,Bastrop,TX,78612,BASTROP ENERGY PARTNERS LP (100%),1010557,D,1007300,125 OLD BASTROP ROAD
2020,Batavia Energy,42.9828,-78.1592,Batavia,GENESEE COUNTY,NY,14020,ALLIANCE ENERGY GROUP LLC (100%),3487,D,1007920,163 Cedar Street
2020,Batesville Generation Facility,34.335611,-89.927444,BATESVILLE,Panola,MS,38606,COOPERATIVE ENERGY A MISSISSIPPI ELECTRIC COOPERATIVE (100%),1673073,D,1010637,200 INDUSTRIAL DRIVE
2020,Baxter Wilson,32.2831,-90.9306,VICKSBURG,Warren,MS,39180,ENTERGY CORP (100%),864451,"C,D",1000699,770 KEMP BOTTOM ROAD
2020,Bay Front,46.5869,-90.9017,ASHLAND,Ashland,WI,54806,XCEL ENERGY INC (100%),20978,D,1000978,122 N 14TH AVE W
2020,Bay Shore,41.6925,-83.4375,OREGON,Lucas,OH,43616,WALLEYE POWER LLC (100%),1459782,"C,D",1007242,4701 BAY SHORE ROAD
2020,Bayonne Energy Center,40.6529,-74.0916,Bayonne,Hudson,NJ,7002,"Bayonne Energy Center, LLC (100%)",187228,D,1000555,401 Hook Road
2020,"Bayonne Plant Holding, LLC",40.6553,-74.1124,BAYONNE,Hudson,NJ,7002,IMTT-BAYONNE LLC (100%),34155,C,1001246,10 HOOK ROAD
2020,Bayou Cove Peaking Power Plant,30.2825,-92.5994,JENNINGS,Acadia,LA,70546,CLECO CORPORATE HOLDINGS LLC (100%),38942,"C,D",1007931,118 BERGEAUX ROAD
2020,Bayside Power Station,27.9072,-82.4231,TAMPA,Hillsborough,FL,33619,Tampa Electric CO (100%),2899974,D,1001172,3602 PORT SUTTON ROAD
2020,Bayswater Peaking Facility,40.6106,-73.7614,FAR ROCKAWAY,Queens,NY,11691,MPH ROCKAWAY PEAKERS HOLDCO LLC (100%),72763,D,1000131,14-25 BAY 24TH ST
2020,Baytown Energy Center,29.7731,-94.9019,BAYTOWN,Chambers,TX,77523,VOLT PARENT LP (100%),1999805,"C,D",1006983,8605 FM 1405
2020,Bear Garden Generating Station,37.6961,-78.2848,New Canton,Buckingham,VA,23123,DOMINION ENERGY INC (100%),1638891,"C,D",1000550,2608 C.G.Woodson Road
2020,Beatrice,40.3286,-96.8067,BEATRICE,Gage,NE,68310,NEBRASKA PUBLIC POWER DISTRICT (100%),343577,"C,D",1000284,20261 SW 61ST RD
2020,Beaver,46.172817,-123.17502,CLATSKANIE,COLUMBIA COUNTY,OR,97016,PORTLAND GENERAL ELECTRIC CO (100%),204553,C,1002488,80997 KALLUNKI ROAD
2020,Beaver Dam Energy LLC,41.6508891,-76.8028933,Canton,,PA,17724,IMG MIDSTREAM LLC (100%),19176,C,1012567,175 Groff Lane
2020,Belews Creek,36.2811,-80.0603,BELEWS CREEK,Stokes,NC,27052,DUKE ENERGY CORP (100%),4410169,"C,D",1001187,3195 PINE HALL ROAD
2020,Belle River,42.7748,-82.4945,SAINT CLAIR HAVEN,Saint Clair,MI,48054,DTE ENERGY CO (100%),4567040,"C,D",1001011,E CHINA TOWNSHIP
2020,Bellingham,42.0925,-71.4833,BELLINGHAM,Norfolk,MA,2019,NEXTERA ENERGY INC (100%),26083,D,1001207,92 DEPOT ST
2020,Bellingham Power Generation LLC,42.1113,-71.4529,BELLINGHAM,Norfolk,MA,2019,Vistra Corp (100%),589619,"C,D",1006864,155 MAPLE ST
2020,Bennett Mountain Power Project,43.147,-115.6671,Mountain Home,Elmore,ID,83647,IDACORP INC (100%),183615,"C,D",1000244,2750 NE Industrial Way
2020,Bergen,40.8375,-74.0244,RIDGEFIELD,Bergen,NJ,7657,PUBLIC SERVICE ENTERPRISE GROUP INC (100%),720311,"C,D",1000742,VICTORIA TERRACE
2020,Berkshire Power,42.0476,-72.6478,AGAWAM,Hampden,MA,1001,BERKSHIRE POWER CO LLC (100%),244079,"C,D",1001298,36 MOYLAN LANE
2020,Bethel Power Plant,60.7893,-161.78927,Bethel,BETHEL CENSUS AREA,AK,99559,,31278,C,1013951,1340 Kwethluk Lane
2020,Bethlehem Energy Center (Albany),42.5905,-73.7636,GLENMONT,Albany,NY,12077,PUBLIC SERVICE ENTERPRISE GROUP INC (100%),1842374,"C,D",1000777,ROUTE 144 RIVER ROAD
2020,Bethlehem Power Plant,40.6175,-75.3147,BETHLEHEM,Northampton,PA,18015,VOLT PARENT LP (100%),2443959,D,1000127,2254 APPLEBUTTER ROAD
2020,Bethpage Energy Center,40.7469,-73.4994,HICKSVILLE,Nassau,NY,11801,VOLT PARENT LP (100%),239591,"C,D",1001238,939 SOUTH BROADWAY
2020,Big Bend,27.7944,-82.4036,APOLLO BEACH,Hillsborough,FL,33572,Tampa Electric CO (100%),2587868,D,1001492,13031 WYANDOTTE ROAD
2020,Big Cajun 1,30.6736,-91.3525,JARREAU,Pointe Coupee,LA,70749,CLECO CORPORATE HOLDINGS LLC (100%),37440,"C,D",1007930,7807 RIVER ROAD   HWY 415
2020,Big Cajun 2,30.7261,-91.3669,NEW ROADS,Pointe Coupee,LA,70760,LOUISIANA GENERATING LLC (86%); ENTERGY CORP (14%),978212,"C,D",1001016,10431 CAJUN 2 ROAD   HWY 981
2020,Big Sandy,38.1707,-82.6176,LOUISA,Lawrence,KY,41230,AMERICAN ELECTRIC POWER CO INC (100%),489463,"C,D",1001587,23000 HWY 23
2020,Big Sandy Peaker Plant,38.3441,-82.5938,KENOVA,Wayne,WV,25530,MIDDLE RIVER POWER II LLC (100%),143904,D,1007358,300 BIG SANDY RIVER ROAD
2020,Big Stone,45.3047,-96.5103,BIG STONE CITY,Grant,SD,57216,OTTER TAIL CORP (53.9%); NORTHWESTERN CORP (23.4%); MDU RESOURCES GROUP INC (22.7%),1883918,"C,D",1001027,48450 144TH ST
2020,Birchwood Power Facility,38.2667,-77.3147,KING GEORGE,King George,VA,22485,J-POWER USA DEVELOPMENT CO LTD (50%); POWER HOLDING LLC (50%),98536,D,1000259,10900 BIRCHWOOD DRIVE
2020,Birdsboro Power Project,40.26668,-75.7964,Birdsboro,BERKS COUNTY,PA,19508,AEIF BIRDSBORO LLC (33.33%); SOJITZ CORP OF AMERICA (33.33%); TOKYO GAS AMERICA LTD (33.33%),1305265,D,1013620,1 Armorcast Rd
2020,Black Dog,44.8108,-93.2501,BURNSVILLE,Dakota,MN,55337,XCEL ENERGY INC (100%),718350,"C,D",1000689,1400 BLACK DOG ROAD
2020,Black Mountain Facility,36.223139,-114.881032,LAS VEGAS,CLARK COUNTY,NV,89124,Panwest NCA2 Holdings LLC (100%),368509,C,1006869,
2020,Black Mountain Generating Station,35.0361,-114.1594,Golden Valley,Mohave,AZ,86413,UNS ENERGY CORP (100%),90998,D,1000489,6625 S. Yuma Road
2020,Blackhawk Station,35.6957,-101.36,BORGER,Hutchinson,TX,79007,GREAT POINT POWER LLC (100%),965724,D,1005822,SPUR 119 N COGEN PLACE
2020,Blackstone Power Generation LLC,42.0575,-71.5172,BLACKSTONE,Worcester,MA,1504,Vistra Corp (100%),567056,"C,D",1006657,204 ELM ST
2020,Blount Street,43.0792,-89.3739,MADISON,Dane,WI,53703,MGE ENERGY INC (100%),26219,"C,D",1000979,717 E MAIN ST
2020,Blue Lake Generating Plant,44.7855,-93.4315,SHAKOPEE,Scott,MN,55379,XCEL ENERGY INC (100%),100040,"C,D",1000424,1200 70TH ST
2020,Blue Spruce Energy Center,39.7436,-104.68,AURORA,Adams,CO,80019,XCEL ENERGY INC (100%),333950,"C,D",1000141,1751 N POWHATON RD
2020,Blue Valley,39.0919,-94.3261,INDEPENDENCE,Jackson,MO,64056,CITY OF INDEPENDENCE MISSOURI (100%),1617,"C,D",1007421,21500 E TRUMAN RD
2020,Bluegrass Generating Station,38.3902,-85.4133,LA GRANGE,Oldham,KY,40031,EAST KENTUCKY POWER COOPERATIVE INC (100%),53691,"C,D",1001341,3095 Commerce Parkway
2020,Bluffview Power Plant,36.7164,-108.2153,FARMINGTON,San Juan,NM,87401,CITY OF FARMINGTON (100%),169659,D,1000463,755 MURRAY DRIVE
2020,Blythe Energy,33.6157,-114.6865,BLYTHE,Riverside,CA,92225,ALTAGAS SERVICES (US) INC (100%),764718,D,1001405,385 N. Buck Blvd.
2020,Boardman,45.6933,-119.8056,BOARDMAN,Morrow,OR,97818,PORTLAND GENERAL ELECTRIC CO (90%); IDACORP INC (10%),1685982,"C,D",1007940,73334 TOWER RD
2020,Bonanza,40.0864,-109.2844,VERNAL,Uintah,UT,84078,DESERET GENERATION & TRANSMISSION COOPERATIVE (96.25%); UTAH MUNICIPAL POWER ASSOC (3.75%),3245038,"C,D",1001149,12500 EAST 25500 SOUTH
2020,Bosque County Power Plant,31.8594,-97.3586,Laguna Park,Bosque,TX,76644,VOLT PARENT LP (100%),1652890,"C,D",1008020,577 Bosque County Road 3610
2020,Boswell Energy Center,47.2603,-93.6531,COHASSET,Itasca,MN,55721,ALLETE INC (90%); WPPI ENERGY (10%),4557211,"C,D",1000687,1200 NW 3RD ST
2020,Boulder Park Generating Station,47.696823,-117.154729,Spokane Valley,SPOKANE COUNTY,WA,99027,AVISTA CORP (100%),23554,C,1010860,4424 N. Barker Road
2020,Bowen,34.1256,-84.9192,CARTERSVILLE,Bartow,GA,30120,THE SOUTHERN CO (100%),7885909,"C,D",1001505,317 COVERED BRIDGE ROAD SW
2020,Bowline Generating Station,41.2044,-73.9689,WEST HAVERSTRAW,Rockland,NY,10993,GENON ENERGY INC (100%),381232,"C,D",1000780,140 SAMSONDALE AVE
2020,Brame Energy Center,31.395,-92.7167,LENA,Rapides,LA,71447,CLECO CORPORATE HOLDINGS LLC (76.16%); LOUISIANA ENERGY & POWER AUTHORITY (6.81%); LAFAYETTE PUBLIC POWER AUTHORITY (17.03%),5074372,D,1001041,275 RODEMACHER RD
2020,Brandon Shores LLC,39.1792,-76.5383,Baltimore,Anne Arundel,MD,21226,TALEN ENERGY CORP (100%),1134635,"C,D",1001481,2030 Brandon Shores RD
2020,Brandy Branch,30.3206,-81.9486,BALDWIN,Duval,FL,32234,JEA (100%),1941809,"C,D",1001167,15701 W BEAVER ST
2020,Brandywine Power Facility,38.6681,-76.8678,BRANDYWINE,Prince George'S,MD,20613,KMC THERMO LLC (100%),263193,"C,D",1001288,16400 MATTAWOMAN DRIVE
2020,"Brazos Valley Energy, LP",29.4731,-95.6244,THOMPSONS,Fort Bend,TX,77481,VOLT PARENT LP (100%),1342170,D,1000798,3440 LOCKWOOD RD
2020,Brentwood,40.787,-73.2933,BRENTWOOD,Suffolk,NY,11717,NEW YORK POWER AUTHORITY (100%),47041,"C,D",1000114,PILGRIM STATE HOSPITAL/1650 ISLIP AVE
2020,Bridgeport Energy LLC,41.1692,-73.1844,BRIDGEPORT,Fairfield,CT,6604,BRIDGEPORT ENERGY LLC (100%),716921,D,1001299,10 ATLANTIC ST
2020,Bridgeport Harbor Station,41.1706,-73.1843,BRIDGEPORT,Fairfield,CT,6604,PUBLIC SERVICE ENTERPRISE GROUP INC (100%),1292273,"C,D",1006949,1 ATLANTIC ST
2020,Broad River Energy Center,35.0786,-81.575,GAFFNEY,Cherokee,SC,29340,ORROYO ENERGY INVESTMENT PATNERS (100%),167709,"C,D",1001343,1124 VICTORY TRAIL ROAD
2020,Brooklyn Navy Yard Cogeneration Project,40.6994,-73.9758,Brooklyn,KINGS COUNTY,NY,11205,AXIUM BNY COGENERATION PARTNERS LLC (100%),989814,D,1000870,"63 Flushing Avenue, Unit 234, Bldg 41"
2020,Brownsville CT,35.5438,-89.198,BROWNSVILLE,Haywood,TN,38012,,207227,"C,D",1000739,948 BEECHGROVE RD
2020,Bruce Mansfield,40.6344,-80.42,SHIPPINGPORT,Beaver,PA,15077,Energy Harbor Generation LLC (100%),0,"C,D",1006909,128 FERRY HILL ROAD
2020,"Brunner Island, LLC",40.097,-76.6962,Mt Wolf,York,PA,17347,TALEN ENERGY CORP (100%),1218761,"C,D",1000886,1400 Wago Road
2020,Brunot Island Power Station,40.4638,-80.044,PITTSBURGH,Allegheny,PA,15204,GENON ENERGY INC (100%),72528,"C,D",1007427,2849 WEST CARSON STREET
2020,Brunswick County Power Station,36.766854,-77.711098,Freeman,BRUNSWICK COUNTY,VA,23856,DOMINION ENERGY INC (100%),3755303,"C,D",1011850,20100 Governor Harrison Pkwy
2020,Brush Power Projects,40.2415,-103.631,BRUSH,Morgan,CO,80723,BEOWULF ENERGY (67%); ALTAGAS SERVICES (US) INC (33%),90169,"C,D",1001224,1500 S CLAYTON
2020,"Buchanan Units 1, 2",37.1753,-81.9617,KEEN MOUNTAIN,Buchanan,VA,24631,"LS Power Development, LLC (100%)",234901,D,1000174,RT 626 OFF RT 460
2020,Buck,35.7133,-80.3767,SALISBURY,Rowan,NC,28145,DUKE ENERGY CORP (100%),1471308,"C,D",1000831,1555 DUKEVILLE RD
2020,"Bucksport Mill, LLC",44.583564,-68.807274,Bucksport,HANCOCK COUNTY,ME,4416,,35,"C,TT",1013945,109 River Road
2020,Bull Run,36.0211,-84.1567,CLINTON,Anderson,TN,37716,,685057,"C,D",1000917,1265 EGDEMOOR RD
2020,Burlington (IA),40.7412,-91.1168,BURLINGTON,Des Moines,IA,52601,ALLIANT ENERGY CORP (100%),1186310,"C,D",1001553,4282 SULLIVAN SLOUGH ROAD
2020,Burlington Generating Station,40.0753,-74.8781,BURLINGTON,Burlington,NJ,8016,PUBLIC SERVICE ENTERPRISE GROUP INC (100%),7780,"C,D,W",1000743,
2020,C D McIntosh Jr Power Plant,28.0809,-81.9256,LAKELAND,Polk,FL,33801,CITY OF LAKELAND (83.4%); CITY OF ORLANDO (16.6%),1436635,"C,D",1001500,3030 E LAKE PARKER DR
2020,C. C. Perry K Steam Plant,39.7622,-86.1667,INDIANAPOLIS,Marion,IN,46204,CITIZENS ENERGY GROUP (100%),187380,C,1001535,366 KENTUCKY AVE
2020,C. R. Wing Cogeneration Plant,32.2722,-101.4222,BIG SPRING,Howard,TX,79720,BERKSHIRE HATHAWAY INC (91.14%); WALTER SCOTT JR (7.89%),331560,D,1000419,500 REFINERY ROAD
2020,CAPITOL POWER PLANT,38.88328,-77.0066,WASHINGTON,DISTRICT OF COLUMBIA,DC,20003,US OF AMERICA ACTING BY & THROUGH THE ARCHITECT OF THE CAPITOL (100%),65037,C,1006733,25 E STREET SOUTHEAST
2020,CHALK CLIFF COGEN,35.44735,-119.08652,BAKERSFIELD,KERN COUNTY,CA,93308,CHALK CLIFF LTD (100%),6397,C,1002759,34759 LENCIONI AVE
2020,CHENA POWER PLANT,64.847528,-147.734742,FAIRBANKS,FAIRBANKS NORTH STAR BOROUGH,AK,99701,AURORA ENERGY LLC (100%),328745,C,1004719,1206 1ST AVE
2020,CHOWCHILLA II,37.10544,-120.283225,CHOWCHILLA,MADERA COUNTY,CA,93610,EWP AMERICA INC (100%),8637,C,1006812,16457 AVENUE 24 1/2
2020,CHUGACH - BELUGA RIVER POWER PLANT,61.185716,-151.037597,Beluga,KENAI PENINSULA BOROUGH,AK,99695,CHUGACH ELECTRIC ASSOC INC (100%),23832,C,1005267,
2020,CLEAR AIR FORCE STATION,64.2919,-149.1618,CLEAR AIR STATION,DENALI BOROUGH,AK,99704,,5729,C,1007791,200 A Street Stop 1
2020,"CLEVELAND THERMAL, LLC",41.50897,-81.68229,CLEVELAND,CUYAHOGA COUNTY,OH,44114,CLEVELAND THERMAL LLC (100%),57646,C,1002202,1921 HAMILTON AVE
2020,COLSTRIP ENERGY LTD PARTNERSHIP,45.97549,-106.65532,COLSTRIP,ROSEBUD COUNTY,MT,59323,COLSTRIP ENERGY LP (100%),370283,C,1001078,18 Snider Subdivision Road
2020,CON ED-EAST 60TH STREET STEAM PLANT,40.7586,-73.9592,MANHATTAN,NEW YORK COUNTY,NY,10022,CONSOLIDATED EDISON INC (100%),46134,C,1000781,514 EAST 60TH STREET
2020,CONSTELLATION POWER SOURCE GENERATION - NOTCH CLIFF,39.4217,-76.5087,GLEN ARM,BALTIMORE COUNTY,MD,21057,EXELON CORP (100%),4320,C,1006220,10650      HARFORD ROAD
2020,COPPER VALLEY ELECTRIC ASSOC (CoGen),61.08304,-146.30223,Valdez,VALDEZ-CORDOVA CENSUS AREA,AK,99686,COPPER VALLEY ELECTRIC ASSOC INC (100%),18165,C,1004974,
2020,CPI USA North Carolina Roxboro,36.435,-78.9619,ROXBORO,Person,NC,27573,CPI USA North Carolina LLC (100%),212449,C,1000226,331 ALLIE CLAY RD
2020,CPI USA North Carolina Southport,33.9444,-78.0125,SOUTHPORT,Brunswick,NC,28461,CPI USA NORTH CAROLINA LLC (100%),379770,C,1000225,1281 POWERHOUSE DR SE
2020,CPV Fairview Energy Center LLC,40.4152,-78.86079,Johnstown,CAMBRIA COUNTY,PA,15909,OSAKA GAS USA CORP (50%); Apollo Infra Equity US Fund LP (25%); CPV POWER HOLDINGS LP (25%),2564235,"C,D",1013577,2862 William Penn Ave
2020,CPV Towantic Energy Center,41.479021,-73.12118,Oxford,NEW HAVEN COUNTY,CT,6478,OSAKA GAS ENERGY AMERICA CORP (49.5049%); CPV POWER HOLDINGS LP (26%); ULLICO INFRASTRUCTURE MASTER FUND LP (13.7004%); VICTOR RHINO HOLDINGS II LLC (10.7947%),1934605,"C,D",1013223,16 Woodruff Hill Road
2020,CPV Valley Energy Center,41.4278,-74.4186,Middletown,ORANGE COUNTY,NY,10940,CPV VALLEY LLC (100%),1751757,D,1013330,3330 Route 6
2020,CROCKETT COGENERATION PLANT,38.0559,-122.21435,CROCKETT,CONTRA COSTA COUNTY,CA,94525,CROCKETT COGENERATION A CALIFORNIA LP (100%),593717,C,1001629,550 LORING AVENUE
2020,Caithness Long Island Energy Center,40.8142,-72.9403,Yaphank,Suffolk,NY,11719,CAITHNESS LONG ISLAND LLC (100%),816739,"C,D",1000450,50 ZORN BOULEVARD
2020,Calcasieu Plant,30.1603,-93.3458,SULPHUR,Calcasieu,LA,70665,ENTERGY CORP (100%),52693,"C,D",1001342,1519 DAVISON ROAD
2020,Caledonia,33.6464,-88.2717,STEENS,Lowndes,MS,39766,,1693929,"C,D",1001357,255 LONE OAK RD
2020,"Calhoun Power Company, LLC",33.5883,-85.9731,EASTABOGA,Calhoun,AL,36260,CALHOUN POWER CO LLC (100%),23212,"C,D",1000812,720 GREEN VALLEY DRIVE
2020,"California Resources Elk Hills, LLC - Gas Processing and Power Generation",35.23893,-119.35951,TUPMAN,KERN COUNTY,CA,93276,CALIFORNIA RESOURCES CORP (100%),1426425,"C,D,NN,W",1005164,28590 Highway 119
2020,"Calpine Gilroy Cogen, LP",37.0001,-121.5367,GILROY,Santa Clara,CA,95020,VOLT PARENT LP (100%),102200,"C,D",1000453,1400 PACHECO PASS HWY
2020,Calpine Hidalgo Energy Center,26.3389,-98.1708,EDINBURG,Hidalgo,TX,78539,VOLT PARENT LP (78.5%); PUBLIC UTILITIES BOARD OF THE CITY OF BROWNSVILLE TEXAS (21.5%),965215,D,1007233,4005 N SEMINARY RD
2020,"Calpine King City Cogen, LLC",36.2257,-121.1279,King City,MONTEREY COUNTY,CA,93930,VOLT PARENT LP (100%),59125,C,1000597,750 Metz Road
2020,Calpine Sutter Energy Center,39.0531,-121.6939,YUBA CITY,Sutter,CA,95993,VOLT PARENT LP (100%),365461,D,1001320,5029 SOUTH TOWNSHIP ROAD
2020,Cambridge Station,45.601,-93.2081,CAMBRIDGE,Isanti,MN,55008,GREAT RIVER ENERGY (100%),13563,"C,D",1000468,HIGHWAY 65
2020,"Camden Plant Holding, LLC",39.9175,-75.1192,CAMDEN,Camden,NJ,8104,TALEN ENERGY CORP (100%),59896,"C,D",1001226,570 CHELTON AVE
2020,Canaday,40.6941,-99.7005,LEXINGTON,Gosper,NE,68850,NEBRASKA PUBLIC POWER DISTRICT (100%),961,"C,D",1006660,74965 RD 435
2020,Canal Station,41.7694,-70.5097,SANDWICH,Barnstable,MA,2563,STONEPEAK INFRASTRUCTURE FUND II LP (100%),178022,"C,D",1000658,9 FREEZER ROAD
2020,Cane Island,28.2764,-81.533,INTERCESSION CITY,Osceola,FL,33848,FLORIDA MUNICIPAL POWER AGENCY (100%),1535600,"C,D",1001098,6075 OLD TAMPA HIGHWAY
2020,Cane Run,38.1828,-85.8894,Louisville,JEFFERSON COUNTY,KY,40216,PPL CORP (100%),1704607,"C,D",1006509,5252 Cane Run Road
2020,Cannon Falls Energy Center,44.5364,-92.9147,CANNON FALLS,Goodhue,MN,55009,INVENERGY LLC (51%); MARUBENI AMERICA CORP (49%),140114,"C,D",1000488,525 N PARK DR
2020,Canyon Power Plant,33.8581,-117.8616,"Anaheim, CA",Orange,CA,92806,SOUTHERN CALIFORNIA PUBLIC POWER AUTHORITY (100%),63139,D,1000566,3071 E. Miraloma Avenue
2020,Cape Canaveral,28.4694,-80.7642,COCOA,Brevard,FL,32927,NEXTERA ENERGY INC (100%),2247390,D,1007650,6000 NORTH US HWY 1
2020,Capitol District Energy Center,41.7639,-72.6925,HARTFORD,Hartford,CT,6106,CAPITAL DISTRICT ENERGY CENTRE COGENERATION ASSOCIATES (100%),13184,"C,D",1001247,490 CAPITOL AVE
2020,Cardinal,40.2522,-80.6486,BRILLIANT,Jefferson,OH,43913,BUCKEYE POWER INC (67.2%); AMERICAN ELECTRIC POWER CO INC (32.8%),9158921,"C,D",1000839,306 COUNTY ROAD 7 EAST
2020,Carl Bailey,35.2597,-91.3631,AUGUSTA,Woodruff,AR,72006,ARKANSAS ELECTRIC COOPERATIVE CORP (100%),4993,"C,D",1001434,585 Woodruff 816
2020,Carlls Corner Energy Center,39.4547,-75.2011,UPPER DEERFIELD TWP,Cumberland,NJ,8302,VOLT PARENT LP (100%),13244,"C,D",1000733,BURLINGTON ROAD
2020,Carlsbad Energy Center Project,33.14011,-117.33366,Carlsbad,SAN DIEGO COUNTY,CA,92008,CLEARWAY ENERGY GROUP LLC (100%),241220,D,1013360,4950 Avenida Encinas
2020,Carneys Point,39.6928,-75.4867,CARNEYS POINT,Salem,NJ,8069,EXCALIBUR POWER LLC (60%); ATLANTI C POWER CORP (40%),781771,"C,D",1005877,500 SHELL RD
2020,Carr Street Generating Station,43.0611,-76.0819,EAST SYRACUSE,Onondaga,NY,13057,BROOKFIELD RENEWABLE ENERGY PARTNERS LP (100%),51085,"C,D",1001257,64 CARR ST
2020,"Carroll County Energy, LLC",40.60652,-81.06862,Washington Township,CARROLL COUNTY,OH,44615,CARROLL COUNTY ENERGY LLC (100%),2089428,"C,D",1013063,2061 Kensington Road
2020,Carson Cogeneration,38.4461,-121.4614,ELK GROVE,Sacramento,CA,95758,CENTRAL VALLEY FINANCING AUTHORITY (100%),113739,"C,D",1001127,8580 Laguna Station Rd
2020,Carthage Energy,43.9842,-75.6225,Carthage,Jefferson,NY,13619,ALLIANCE ENERGY GROUP LLC (100%),2646,"C,D",1001218,701 West End Ave
2020,Carty Generating Station,45.6933,-119.8075,Boardman,MORROW COUNTY,OR,97818,PORTLAND GENERAL ELECTRIC CO (100%),1174311,"C,D",1012606,73396 Tower Road
2020,Carville Energy Center,30.2292,-91.065,Saint Gabriel,IBERVILLE PARISH,LA,70776,Argo Infrastructure Partners LLC (100%),1110963,D,1005110,4322 HIGHWAY 30
2020,Cass County Station,40.9472,-95.9667,PLATTSMOUTH,Cass,NE,68048,OMAHA PUBLIC POWER DISTRICT (100%),94658,"C,D",1008168,3520 MILL ROAD
2020,"Castleton Power, LLC",42.5375,-73.7433,CASTLETON ON HUDSON,Rensselaer,NY,12033,CASTLETON ENERGY CENTER LLC (100%),40014,"C,D",1001206,1902 RIVER ROAD ROUTE 9J
2020,Cayuga,39.9239,-87.4272,CAYUGA,Vermillion,IN,47900,DUKE ENERGY CORP (100%),4106749,"C,D",1001540,3300 North SR 63
2020,"Cayuga Operating Company, LLC",42.6028,-76.6336,LANSING,Tompkins,NY,14882,HEOROT POWER HOLDINGS LLC (100%),59,"C,D",1006950,228 CAYUGA DR
2020,Cedar Bayou,29.7483,-94.9272,BAYTOWN,Chambers,TX,77520,NRG ENERGY INC (100%),1105684,"C,D",1000929,7705 WEST BAY ROAD
2020,Cedar Bayou 4,29.752,-94.923,ELDON,Chambers,TX,77523,NRG ENERGY INC (50%); OPTIM ENERGY LLC (50%),694657,D,1000547,7705 WEST BAY ROAD
2020,Central Alabama Generating Station,32.6503,-86.7386,BILLINGSLEY,Autauga,AL,36006,THE SOUTHERN CO (100%),2169955,D,1000819,3305 COUNTY ROAD 26
2020,Centralia,46.7559,-122.8578,CENTRALIA,Lewis,WA,98531,TRANSALTA USA INC (100%),5798775,"C,D",1007310,913 BIG HANAFORD RD
2020,Ceredo Generating Station,38.3681,-82.5339,HUNTINGTON,Wayne,WV,25704,AMERICAN ELECTRIC POWER CO INC (100%),73006,"C,D",1001396,1662 WALKER BRANCH ROAD
2020,Chalk Point,38.5444,-76.6861,AQUASCO,Prince George's,MD,20608,GENON HOLDINGS INC (100%),403900,"C,D",1000649,PO 10
2020,"Chambersburg Units 12,13",39.8668,-77.6859,CHAMBERSBURG,Franklin,PA,17201,"LS Power Development, LLC (100%)",127917,D,1000148,ALLEMAN ROAD
2020,Chamon Power LLC,29.87449,-95.106947,Houston,HARRIS COUNTY,TX,77049,PEAKER POWER LLC (100%),21748,D,1012910,18511 Beaumont Hwy
2020,Channel Energy Center,29.7189,-95.2319,PASADENA,Harris,TX,77506,VOLT PARENT LP (100%),2298828,"C,D",1001408,451 LIGHT COMPANY ROAD
2020,Channelview Cogeneration Facility,29.8356,-95.1242,Houston,Harris,TX,77049,EIF CHANNELVIEW LLC (100%),2854833,D,1007323,8580 Sheldon Road
2020,Chanute 2,37.6953,-95.4586,CHANUTE,Neosho,KS,66720,CITY OF CHANUTE (100%),175628,"C,D",1005778,1415 N GARFIELD
2020,Charles D. Lamb Energy Center,36.81107,-97.12581,Ponca City,KAY COUNTY,OK,74601,OKLAHOMA MUNICIPAL POWER AUTHORITY (100%),75576,D,1011999,4250 W. Doolin Avenue
2020,Charles Larsen Memorial Power Plant,28.0491,-81.9238,LAKELAND,Polk,FL,33801,CITY OF LAKELAND (100%),78338,"C,D",1001499,2002 E RD 92
2020,Charles R Lowman,31.4858,-87.9106,LEROY,Washington,AL,36548,POWERSOUTH ENERGY COOPERATIVE (100%),376390,D,1001418,CARSON ROAD
2020,Chattahoochee Energy Facility,33.407,-85.0387,FRANKLIN,Heard,GA,30217,OGLETHORPE POWER CORP (100%),1275208,D,1001178,3459 HOLLINGSWORTH FERRY RD
2020,Chehalis Generation Facility,46.6226,-122.9145,CHEHALIS,Lewis,WA,98532,BERKSHIRE HATHAWAY INC (100%),972206,"C,D",1000144,1813 BISHOP ROAD
2020,Cherokee,39.8078,-104.9648,DENVER,Adams,CO,80216,XCEL ENERGY INC (100%),1697470,"C,D",1007207,6198 FRANKLIN ST
2020,Cherokee County Cogen,35.0727,-81.613,GAFFNEY,Cherokee,SC,29340,"LS Power Development, LLC (100%)",149701,D,1007184,132 PEOPLES CREEK RD
2020,Chesterfield Power Station,37.3822,-77.3833,CHESTER,Chesterfield,VA,23831,DOMINION ENERGY INC (100%),2301441,"C,D",1000964,500 COXENDALE ROAD
2020,Cheswick,40.5383,-79.7906,Springdale,Allegheny,PA,15144,GENON ENERGY INC (100%),603813,"C,D",1001198,100 Pittsburgh Street
2020,Chevron Cogenerating Station,30.34,-88.492,PASCAGOULA,Jackson,MS,39568,THE SOUTHERN CO (100%),725601,"C,D",1000696,200 INDUSTRIAL ROAD GATE 4
2020,Cheyenne Prairie Generating Station,41.12703,-104.72413,Cheyenne,LARAMIE COUNTY,WY,82009,BLACK HILLS CORP (100%),154535,"C,D",1012045,6711 HR Ranch Road
2020,Choctaw County Gen,33.2881,-89.4201,FRENCH CAMP,Choctaw,MS,39745,ENTERGY CORP (100%),2014433,"C,D",1000171,2446 HIGHWAY 407 WEST
2020,Cholla,34.9394,-110.3033,JOSEPH CITY,Navajo,AZ,86032,BERKSHIRE HATHAWAY INC (53%); PINNACLE WEST CAPITAL CORP (47%),3789005,D,1001421,4801 FRONTAGE ROAD
2020,Chouteau Power Plant,36.2206,-95.2756,PRYOR,Mayes,OK,74362,ASSOCIATED ELECTRIC COOPERATIVE INC (100%),2355312,"C,D",1001142,HWY 412B
2020,Chuck Lenzie Generating Station,36.3853,-114.9228,APEX,Clark,NV,89124,BERKSHIRE HATHAWAY INC (100%),2527049,"C,D",1000150,11405 US HIGHWAY 93
2020,City Water & Light - City of Jonesboro,35.8481,-90.7257,JONESBORO,Craighead,AR,72403,CITY WATER & LIGHT PLANT OF THE CITY OF JONESBORO (100%),6772,"C,D",1000493,1400 HANLEY DRIVE
2020,City of Akron Steam Generating,41.07354,-81.53199,AKRON,SUMMIT COUNTY,OH,44307,CITY OF AKRON (100%),49077,C,1002328,222 OPPORTUNITY PARKWAY
2020,City of Coffeyville Light & Power,37.0456,-95.6076,COFFEYVILLE,Montgomery,KS,67337,CITY OF COFFEYVILLE (100%),160,"C,D",1001580,605 SANTA FE
2020,Clark,36.0875,-115.0507,LAS VEGAS,Clark,NV,89122,BERKSHIRE HATHAWAY INC (100%),439619,"C,D",1000726,5640 STEPHANIE ST
2020,Clayville,39.42737,-75.01947,Vineland,CUMBERLAND COUNTY,NJ,8361,CITY OF VINELAND (100%),28287,D,1012074,4087 S. Lincoln Ave.
2020,Cleary Flood,41.8653,-71.1061,TAUNTON,Bristol,MA,2780,TAUNTON MUNICIPAL LIGHTING PLANT (100%),32457,"C,D",1000667,1314 SOMERSET AVE
2020,Cleveland County Generating Facility,35.1706,-81.4161,Grover,Cleveland,NC,28073,THE SOUTHERN CO (100%),323841,"C,D",1000565,200 Elm Road 
2020,Cliffside,35.22,-81.7594,CLIFFSIDE,Cleveland,NC,28024,DUKE ENERGY CORP (100%),4172651,"C,D",1000832,DUKE POWER RD #1002
2020,Clifty Creek,38.7383,-85.4192,MADISON,Jefferson,IN,47250,AMERICAN ELECTRIC POWER CO INC (100%),4555474,"C,D",1001531,1335 CLIFTY HOLLOW ROAD
2020,Clinch River,36.9333,-82.1997,CLEVELAND,Russell,VA,24225,AMERICAN ELECTRIC POWER CO INC (100%),166960,"C,D",1007359,STATE ROUTE 82
2020,Clover Power Station,36.8692,-78.7046,CLOVER,Halifax,VA,24534,DOMINION ENERGY INC (50%); OLD DOMINION ELECTRIC COOPERATIVE (50%),1299331,D,1001093,4091 Clover Rd
2020,Coal Creek,47.3761,-101.1567,UNDERWOOD,McLean,ND,58576,GREAT RIVER ENERGY (100%),8659659,"C,D",1007429,2875 3RD ST SW
2020,Coalinga Cogeneration Facility,36.1807,-120.3885,COALINGA,Fresno,CA,93210,CHEVRON CORP (100%),0,"D,DD",1007204,32812 WEST GALE AVE
2020,Coffeyville Municipal Light and Power Generating Facility No. 2,37.092977,-95.585154,Coffeyville,MONTGOMERY COUNTY,KS,67337,CITY OF COFFEYVILLE (100%),22689,C,1012981,2601 N. 5th Industrial Street
2020,Colbert,34.7439,-87.8486,TUSCUMBIA,Colbert,AL,35674,,3004,C,1007829,900 STEAM PLANT RD
2020,Coleman,37.9628,-86.7917,HAWESVILLE,Hancock,KY,42348,BIG RIVERS ELECTRIC CORP (100%),0,"C,D",1001599,4982 RIVER ROAD
2020,Coleto Creek,28.7128,-97.2142,FANNIN,Goliad,TX,77960,Vistra Corp (100%),2726983,D,1001038,FM 2987 OFF HWY 59
2020,Colorado Bend I,29.2878,-96.0683,WHARTON,Wharton,TX,77488,COLORADO BEND 1 POWER LLC (100%),992364,D,1000483,3863 S SH 60
2020,Colorado Bend II,29.2878,-96.0683,Wharton,WHARTON COUNTY,TX,77488,EXELON CORP (100%),2036191,"C,D",1013024,4023 South State Hwy 60
2020,Colstrip,45.8831,-106.614,COLSTRIP,Rosebud,MT,59323,BERKSHIRE HATHAWAY INC (7.1%); PUGET HOLDINGS LLC (32.3%); TALEN ENERGY CORP (25.2%); PORTLAND GENERAL ELECTRIC CO (14.2%); AVISTA CORP (10.6%); NORTHWESTERN CORP (10.6%),8274559,D,1001020,1 WAREHOUSE ROAD
2020,Columbia,38.9658,-92.3175,COLUMBIA,Boone,MO,65205,COLUMBIA CITY OF (INC) (100%),16763,"C,D",1000709,1501 BUSINESS LOOP 70 E
2020,Columbia,43.4864,-89.4203,PARDEEVILLE,Columbia,WI,53954,ALLIANT ENERGY CORP (46.2%); INTEGRYS ENERGY GROUP INC (31.8%); MGE ENERGY INC (22%),5636353,"C,D",1001186,W8375 MURRAY RD
2020,Columbia Energy Center (SC),33.8692,-81.0183,GASTON,Calhoun,SC,29053,DOMINION ENERGY INC (100%),1287345,"C,D",1006999,100 CALPINE WAY
2020,Colver Green Energy,40.55,-78.8,COLVER,Cambria,PA,15927,INTER-POWER/AHLCON PARTNERS LP (100%),602476,C,1001204,141 INTERPOWER DRIVE
2020,Comanche (470),38.2081,-104.5747,PUEBLO,Pueblo,CO,81006,XCEL ENERGY INC (82.54%); HOLY CROSS ELECTRIC ASSOC INC (4.19%); INTERMOUNTAIN RURAL ELEC ASSN (13.27%),4430252,"C,D",1001462,2005 LIME RD
2020,Comanche (8059),34.5431,-98.3244,LAWTON,Comanche,OK,73501,AMERICAN ELECTRIC POWER CO INC (100%),123779,D,1001191,6601 SE 60TH ST
2020,Commonwealth Chesapeake,37.9892,-75.54,NEW CHURCH,Accomack,VA,23415,TYR ENERGY (100%),18840,D,1007538,3415 WHITE OAK WAY
2020,Concord,43.1669,-88.69,WATERTOWN,Jefferson,WI,53094,WEC Energy Group Inc (100%),67213,"C,D",1001086,N8914 COUNTY HIGHWAY E
2020,Conemaugh,40.3842,-79.0611,NEW FLORENCE,Indiana,PA,15944,ARCLIGHT CAPITAL HOLDINGS LLC (57.61%); BOWFIN KEYCON POWER LLC (3.72%); TALEN ENERGY CORP (22.22%); KEYCON POWER HOLDINGS LLC (16.45%),7122031,"C,D",1000877,1442 POWER PLANT ROAD
2020,Conesville,40.1842,-81.8811,CONESVILLE,Coshocton,OH,43811,AMERICAN ELECTRIC POWER CO INC (92%); THE AES CORP (8%),1100914,"C,D",1000845,STATE ROUTE 16
2020,Coolidge Generating Station,32.9175,-111.5041,Randolph,Pinal,AZ,85128,SALT RIVER PROJECT AGRICULTURAL IMPROVEMENT & POWER DISTRICT (100%),281113,D,1007962,"T6S, R8E, Section 10"
2020,"Cooper River Partners, LLC",32.986764,-79.932948,Goose Creek,BERKELEY COUNTY,SC,29445,COOPER RIVER PARTNERS LLC (100%),51828,C,1007442,1588 Bushy Park Road
2020,Cope Station,33.3642,-81.03,COPE,Orangeburg,SC,29038,DOMINION ENERGY INC (100%),630248,"C,D",1001092,405 TEAMWORK ROAD
2020,Copper Station,31.7569,-106.375,EL PASO,El Paso,TX,79915,EL PASO ELECTRIC CO (100%),34902,C,1000540,651 HAWKINS BLVD
2020,Cordova Energy Company,41.7146,-90.2802,CORDOVA,Rock Island,IL,61242,WALTER SCOTT JR (9.2%); BERKSHIRE HATHAWAY INC (89.8%); GREG ABEL SERVICES LLC (1%),731120,"C,D",1001354,24712 192ND AVE NORTH
2020,Coronado Generating Station,34.5778,-109.2717,ST JOHNS,Apache,AZ,85936,SALT RIVER PROJECT AGRICULTURAL IMPROVEMENT & POWER DISTRICT (100%),3139666,"C,D,HH",1007103,
2020,Corpus Christi Energy Center,27.8139,-97.4283,CORPUS CHRISTI,Nueces,TX,78407,VOLT PARENT LP (100%),1258954,"C,D",1001363,3952 BUDDY LAWRENCE DRIVE
2020,Cosumnes Power Plant,38.3383,-121.1239,HERALD,Sacramento,CA,95638,SACRAMENTO MUNICIPAL UTILITY DISTRICT FINANCING AUTHORITY (100%),1382140,D,1000323,14295A Clay East Road
2020,Cottage Grove Cogeneration,44.7956,-92.9119,COTTAGE GROVE,Washington,MN,55016,PanCental CGC Holdings LLC (99%); LSP-COTTAGE GROVE LLC (1%),320122,"C,D",1001291,9525 105TH ST COURT S
2020,Cottonwood Energy Project,30.2588,-93.7353,DEWEYVILLE,Newton,TX,77614,CLECO CORPORATE HOLDINGS LLC (100%),2430372,"C,D",1007303,976 COUNTY ROAD 4213
2020,Coughlin Power Station,30.8442,-92.2606,ST. LANDRY,Evangeline,LA,71367,CLECO CORPORATE HOLDINGS LLC (100%),1481141,D,1001603,2180 ST LANDRY HWY
2020,Covanta Niagara,43.0839,-79.0056,NIAGARA FALLS,Niagara,NY,14304,COVANTA HOLDING CORP (100%),312409,"C,D",1001245,100 ENERGY BOULEVARD & 56TH STREET
2020,Coyote,47.2217,-101.8139,BEULAH,Mercer,ND,58523,OTTER TAIL CORP (35%); NORTHERN MUNICIPAL POWER AGENCY (30%); MDU RESOURCES GROUP INC (25%); NORTHWESTERN CORP (10%),2640608,"C,D",1007420,6240 13TH ST SW
2020,Coyote Springs,45.8486,-119.6744,BOARDMAN,Morrow,OR,97818,AVISTA CORP (50%); PORTLAND GENERAL ELECTRIC CO (50%),1264391,"C,D",1001119,200 ULLMAN BLVD
2020,Craig,40.4627,-107.5912,CRAIG,Moffat,CO,81626,XCEL ENERGY INC (6.47%); TRI-STATE GENERATION & TRANSMISSION ASSOC INC (49.33%); SALT RIVER PROJECT AGRICULTURAL IMPROVEMENT & POWER DISTRICT (19.34%); PACIFICORP (12.86%); PLATTE RIVER POWER AUTHORITY (12%),7651502,"C,D",1001008,2101 S RANNEY
2020,Craven County Wood Energy,35.1285,-77.17,New Bern,CRAVEN COUNTY,NC,28562,ATLANTIC POWER CORP (50%); CMS ENERGY CORP (50%),160,D,1007732,201 Executive Parkway
2020,Crete Energy Park,41.4297,-87.6187,CRETE,Will,IL,60417,ARCLIGHT CAPITAL HOLDINGS LLC (100%),27043,"C,D",1001384,25400 HARTMAN DRIVE
2020,Cricket Valley Energy Center,41.67616,-73.576914,DOVER PLAINS,DUTCHESS COUNTY,NY,12522,CRICKET VALLEY ENERGY CENTER LLC (100%),1569163,"C,D",1013598,2241 Route 22
2020,Cross,33.3692,-80.1119,PINEVILLE,Berkeley,SC,29468,SOUTH CAROLINA PUBLIC SERVICE AUTHORITY (100%),6612915,D,1001427,553 CROSS STATION ROAD
2020,Crossroads Energy Center (CPU),34.183,-90.5621,CLARKSDALE,Coahoma,MS,38614,CLARKSDALE PUBLIC UTILITIES COMMISSION (100%),85029,D,1000152,240 HICKS ST
2020,Crystal River Power Plant,28.9594,-82.7003,CRYSTAL RIVER,Citrus,FL,34428,DUKE ENERGY CORP (100%),7763039,"D,TT",1001487,15760 WEST POWERLINE ST
2020,Culbertson Station,48.2104,-104.3919,Culbertson,Roosevelt,MT,59218,BASIN ELECTRIC POWER COOPERATIVE (100%),25815,D,1000563,5419 Road 1016
2020,Cumberland,36.3903,-87.6539,CUMBERLAND CITY,Stewart,TN,37050,,9428863,"C,D",1007639,815 CUMBERLAND CITY RD
2020,Cumberland Energy Center,39.3757,-74.9654,MILLVILLE,Cumberland,NJ,8332,VOLT PARENT LP (100%),34255,"C,D",1006939,4001 EAST MAIN ST
2020,Cunningham,32.7131,-103.3533,HOBBS,Lea,NM,88240,XCEL ENERGY INC (100%),772414,"C,D",1000755,13M W OF HOBBS ON HWY 62/180
2020,Currant Creek Power Project,39.8223,-111.894,MONA,Juab,UT,84645,BERKSHIRE HATHAWAY INC (100%),944420,"C,D",1000436,2096 WEST 300 NORTH
2020,Curtis H. Stanton Energy Center,28.4836,-81.1686,ORLANDO,Orange,FL,32831,ORLANDO UTILITIES COMMISSION (100%),4390671,D,1001472,5100 S ALAFAYA TRAIL
2020,D B Wilson,37.4497,-87.0803,Island,Ohio,KY,42350,BIG RIVERS ELECTRIC CORP (100%),2411221,"C,D",1001066,State Highway 85 
2020,D G Hunter,31.321,-92.4626,Alexandria,RAPIDES PARISH,LA,71301,CITY OF ALEXANDRIA (100%),29637,C,1006862,1011 North Third Street
2020,DISTRICT ENERGY ST PAUL INC-HANS O NYMAN,44.94333,-93.096815,SAINT PAUL,RAMSEY COUNTY,MN,55102,DISTRICT ENERGY ST PAUL INC (100%),32382,C,1006101,76 KELLOGG BOULEVARD WEST
2020,DOUBLE C LIMITED,35.490363,-119.042957,BAKERSFIELD,KERN COUNTY,CA,93308,DOUBLE C LTD (100%),11933,C,1002820,10245 OILFIELD ROAD
2020,DOVER MUNICIPAL LIGHT PLANT (0679010146),40.52012,-81.46759,DOVER,TUSCARAWAS COUNTY,OH,44622,CITY OF DOVER (100%),84668,C,1006663,303 EAST BROADWAY
2020,"DTE Atlantic, LLC",39.370885,-74.430391,Atlantic City,ATLANTIC COUNTY,NJ,8401,DTE ENERGY CO (100%),42611,C,1008787,1077 Absecon Blvd
2020,"DTE Calvert City, LLC",37.0467,-88.3506,CALVERT CITY,Marshall,KY,42029,DTE ENERGY CO (100%),189444,C,1000282,480 N MAIN
2020,DTE East China,42.774,-82.4818,EAST CHINA,Saint Clair,MI,48054,DTE ENERGY CO (100%),463722,D,1000173,4490 NORTH RIVER RD
2020,DTE Electric Company - Dearborn Energy Center,42.29701,-83.23063,Dearborn,WAYNE COUNTY,MI,48124,DTE ENERGY CO (100%),140170,C,1013875,1641 Carroll Shelby Way East
2020,Dahlberg (Jackson County),34.0386,-83.3972,NICHOLSON,Jackson,GA,30565,THE SOUTHERN CO (100%),355710,"C,D",1001147,585 JARRETT ROAD
2020,Dallman,39.7539,-89.6011,SPRINGFIELD,Sangamon,IL,62703,CITY OF SPRINGFIELD (100%),861895,"C,D",1001529,3100 STEVENSON DRIVE
2020,Dan E Karn,43.6425,-83.8431,ESSEXVILLE,Bay,MI,48732,CMS ENERGY CORP (100%),1914333,"C,D",1007374,2742 N WEADOCK HWY
2020,Dan River,36.4862,-79.7208,EDEN,Rockingham,NC,27288,DUKE ENERGY CORP (100%),1738238,"C,D",1000833,900 S EDGEWOOD RD
2020,Daniel Electric Generating Plant,30.5335,-88.5574,ESCATAWPA,Jackson,MS,39552,THE SOUTHERN CO (75%); NEXTERA ENERGY INC (25%),5808050,"C,D",1007370,13201 HIGHWAY 63
2020,Danskammer Generating Station,41.573,-73.9646,NEWBURGH,Orange,NY,12550,DANSKAMMER ENERGY LLC (100%),7699,D,1000758,994 RIVER RD
2020,Darby Electric Generating Station,39.7139,-83.1778,MOUNT STERLING,Pickaway,OH,43143,LIGHTSTONE GENERATION LLC (100%),255402,"C,D",1001382,12509 ADKINS ROAD
2020,Darbytown Combustion Turbine,37.4978,-77.368,RICHMOND,Henrico,VA,23883,DOMINION ENERGY INC (100%),73386,D,1000303,6001 FERGUS BLVD
2020,Dartmouth Power,41.6728,-70.9989,DARTMOUTH,Bristol,MA,2747,SAPPHIRE POWER HOLDINGS LLC (100%),22651,"C,D",1009167,1 ENERGY RD.
2020,Dave Gates Generating Station,46.1066,-112.8755,Anaconda,Deer Lodge,MT,59711,NORTHWESTERN CORP (100%),126466,"C,D",1007439,241-A Willow Glen Road
2020,Dave Johnston,42.8378,-105.7769,GLENROCK,Converse,WY,82637,BERKSHIRE HATHAWAY INC (100%),4896647,"C,D",1000990,1591 TANK FARM ROAD
2020,David M Ratcliffe,32.7976,-88.6057,De Kalb,KEMPER COUNTY,MS,39328,THE SOUTHERN CO (100%),1706448,"C,D",1010949,5835 Highway 496
2020,Dayton Avenue Substation,42.0269,-93.5828,AMES,Story,IA,50010,CITY OF AMES (100%),552,"C,D",1000448,2300 PULLMAN ST
2020,De Moss Petrie Generating Station,32.2511,-110.9889,TUCSON,Pima,AZ,85705,UNS ENERGY CORP (100%),1179,D,1007187,2501 N FLOWING WELLS ROAD
2020,De Pere Energy Center,44.4489,-88.0731,DE PERE,Brown,WI,54115,WEC Energy Group Inc (100%),72015,D,1001295,112 N 5TH ST
2020,DeBary Power Plant,28.9047,-81.3319,DEBARY,Volusia,FL,32713,DUKE ENERGY CORP (100%),106349,"C,D",1001014,176 WEST HIGHBANKS RD
2020,Dearborn Industrial Generation,42.3026,-83.154,DEARBORN,Wayne,MI,48121,CMS ENERGY CORP (100%),3117087,"C,D",1006695,2400 MILLER ROAD
2020,Decatur Energy Center,34.6292,-87.0214,DECATUR,Morgan,AL,35601,DECATUR ENERGY LLC (100%),593507,D,1006705,2024 HIGHWAY 20 WEST
2020,Decker Creek,30.3036,-97.6128,AUSTIN,Travis,TX,78724,AUSTIN ENERGY CORP (100%),462632,"C,D",1006650,8003 DECKER LN
2020,Dededo Combustion Turbine Generating Facility,13.516089,144.851667,Dededo,GUAM,GU,96929,GUAM POWER AUTHORITY (100%),3359,C,1013328,"10122-10-1 & 10122-13-1, Route 1"
2020,Deer Creek Station,44.3961,-96.5333,Elkton,Brookings,SD,57026,BASIN ELECTRIC POWER COOPERATIVE (100%),327839,D,1005589,2615 484th Ave.
2020,Deer Park Energy Center,29.7153,-95.1361,DEER PARK,Harris,TX,77536,VOLT PARENT LP (100%),4041179,D,1000825,5665 HIGHWAY 225
2020,Deerhaven,29.7586,-82.3883,GAINESVILLE,Alachua,FL,32653,CITY OF GAINESVILLE (100%),564753,"C,D",1001495,10001 NW 13TH ST
2020,Deerhaven Renewable,29.7586,-82.3883,Gainesville,ALACHUA COUNTY,FL,32653,CITY OF GAINESVILLE (100%),766,D,1011204,11201 NW 13th Street
2020,Delaware City Refinery,39.5936,-75.6337,DELAWARE CITY,New Castle,DE,19706,PBF ENERGY INC (100%),161005,"C,D,MM,P,PP,Y",1007322,4550 WRANGLE HILL ROAD
2020,Dell Power Plant,35.8619,-90.0253,DELL,Mississippi,AR,72426,ASSOCIATED ELECTRIC COOPERATIVE INC (100%),1167154,"C,D",1000794,301 E STATE HIGHWAY 18
2020,Delray,42.2947,-83.1019,DETROIT,Wayne,MI,48209,DTE ENERGY CO (100%),22649,D,1000674,6911 W JEFFERSON AVE
2020,"Delta Energy Center, LLC",38.0167,-121.8439,PITTSBURG,Contra Costa,CA,94565,VOLT PARENT LP (100%),1480845,D,1001263,1200 ARCY LANE
2020,Denton Energy Center,33.221006,-97.215656,Denton,DENTON COUNTY,TX,76207,CITY OF DENTON (100%),78065,C,1013173,8161 Jim Christal Rd.
2020,Desert Basin Generating Station,32.9042,-111.7889,CASA GRANDE,Pinal,AZ,85222,SALT RIVER PROJECT AGRICULTURAL IMPROVEMENT & POWER DISTRICT (100%),756051,D,1001329,1872 N BURRIS RD
2020,Desert Star Energy Center,35.7867,-114.9928,Boulder City,Clark,NV,89005,SEMPRA ENERGY (100%),432744,D,1001306,701 El Dorado Valley Drive
2020,Dickerson,39.2086,-77.4644,DICKERSON,Montgomery,MD,20842,GENON HOLDINGS INC (100%),243277,"C,D",1000650,21200 MARTINSBURG ROAD
2020,Dighton,41.8312,-71.1239,DIGHTON,Bristol,MA,2715,JERA ENERGY AMERICA LLC (50%); STARWOOD CAPITAL GROUP LLC (50%),91074,D,1001294,1450 SOMERSET AVE
2020,Dogwood Energy Facility,38.7931,-94.3006,PLEASANT HILL,Cass,MO,64080,DOGWOOD POWER MANAGEMENT LLC (100%),867528,D,1001351,25111 E 175TH ST
2020,Dolet Hills Power Station,32.0306,-93.5692,MANSFIELD,De Soto,LA,71052,CLECO CORPORATE HOLDINGS LLC (50%); SOUTHWESTERN ELECTRIC POWER CO (SWEPCO) (50%),753861,D,1001416,963 POWER PLANT RD
2020,Donald Von Raesfeld,37.3767,-121.9508,SANTA CLARA,Santa Clara,CA,95054,CITY OF SANTA CLARA CA (100%),207358,D,1000310,850 DUANE AVE
2020,Doswell Limited Partnership,37.8181,-77.4478,ASHLAND,Hanover,VA,23005,LS POWER EQUITY PARTNERS LP (100%),2810265,"C,D",1001259,10098 OLD RIDGE ROAD
2020,Doyle Energy Facility,33.8376,-83.6996,MONROE,Walton,GA,30656,OGLETHORPE POWER CORP (100%),72837,"C,D",1005702,1318 GRATIS ROAD
2020,Dresden Energy Facility,40.09399,-82.02394,Dresden,MUSKINGUM COUNTY,OH,43821,AMERICAN ELECTRIC POWER CO INC (100%),1696317,"C,D",1010575,9595 McGlade School Road
2020,Dry Fork Station,44.3901,-105.4591,Gillette,Campbell,WY,82716,BASIN ELECTRIC POWER COOPERATIVE (92.9%); WYOMING MUNICIPAL POWER AGENCY INC (7.1%),3279994,D,1000562,12460 N. Hwy 59
2020,"Duke Energy Vermillion, II LLC",39.9208,-87.445,CAYUGA,Vermillion,IN,47928,DUKE ENERGY CORP (62.5%); WABASH VALLEY POWER ASSOC (37.5%),115148,D,1001319,2777 N STATE ROAD 63
2020,Duluth Steam One,46.7854,-92.09639,DULUTH,ST. LOUIS COUNTY,MN,55802,CITY OF DULUTH (100%),39964,C,1006024,1 LAKE PLACE DR
2020,Dutch Harbor Power House,53.892656,-166.53787,Unalaska,ALEUTIANS WEST CENSUS AREA,AK,99685,CITY OF UNALASKA (100%),28056,C,1008060,1732 East Point Rd
2020,"Dynegy Energy Fayette, II LLC",39.8592,-79.9182,MASONTOWN,Fayette,PA,15461,Vistra Corp (100%),1914957,"C,D",1000265,100 ENERGY DRIVE
2020,"Dynegy Energy Washington II, LLC",39.5798,-81.6571,BEVERLY,Washington,OH,45715,Vistra Corp (100%),1959330,"C,D",1000168,859 ST RT 83
2020,Dynegy Kendall Energy Facility,41.4797,-88.2581,MINOOKA,Kendall,IL,60447,Vistra Corp (100%),3043745,"C,D",1001330,1401 COUNTY LINE ROAD
2020,E B Harris Generating Plant,32.3814,-86.5736,AUTAUGAVILLE,Autauga,AL,36067,THE SOUTHERN CO (100%),1658585,"C,D",1001175,600 COUNTY ROAD 41
2020,E C Gaston,33.2442,-86.4567,WILSONVILLE,Shelby,AL,35186,THE SOUTHERN CO (100%),3481849,"C,D",1001414,31972 HIGHWAY 25 NORTH
2020,E D Edwards,40.5958,-89.6631,BARTONVILLE,Peoria,IL,61607,Vistra Corp (100%),3113895,D,1001514,7800 SOUTH CILCO LANE
2020,E F Barrett,40.6169,-73.6486,ISLAND PARK,Nassau,NY,11558,NATIONAL GRID USA (100%),857135,"C,D",1000768,MCCARTHY ROAD
2020,"E F Kenilworth, Inc.",40.6781,-74.2744,KENILWORTH,Union,NJ,7033,ATLANTIC POWER CORP (100%),82965,C,1005905,2000 GALLOPING HILL RD BLDG K-14
2020,E.F. Oxnard LLC,34.19677,-119.168423,Oxnard,VENTURA COUNTY,CA,93030,ATLANTIC POWER CORP (100%),30181,C,1005565,550 Diaz Avenue
2020,E.W. Brown,37.7889,-84.7139,Harrodsburg,MERCER COUNTY,KY,40330,PPL CORP (100%),1376119,"C,D",1001579,815 Dix Dam Road
2020,"EFS Parlin Holdings, LLC",40.4586,-74.3327,PARLIN,Middlesex,NJ,8859,GENERAL ELECTRIC CO (100%),3528,"C,D",1001253,790 WASHINGTON ROAD
2020,ENERGY CENTER MINNEAPOLIS,44.973474,-93.267695,MINNEAPOLIS,HENNEPIN COUNTY,MN,55404,CLEARWAY ENERGY INC (100%),86823,C,1000591,816 4TH AVENUE SOUTH
2020,ENERGY CENTER SAN FRANCISCO,37.78203,-122.40841,SAN FRANCISCO,SAN FRANCISCO COUNTY,CA,94103,CLEARWAY ENERGY GROUP LLC (100%),49213,C,1003978,460 JESSIE ST
2020,"ENERGY SYSTEMS GROUP, LLC- North Chicago Energy Center",42.3085,-87.86253,NORTH CHICAGO,LAKE COUNTY,IL,60064,AMALGAMATED INVESTMENTS CO (100%),41526,C,1001316,"3001  GREEN BAY RD, Bldg 195"
2020,Eagle Point Power Generation,39.8746,-75.1592,WESTVILLE,Gloucester,NJ,8093,ROCKLAND CAPITAL LLC (100%),239249,D,1001248,1250 Crown Point Road
2020,Eagle US 2 LLC,30.221,-93.2826,WESTLAKE,CALCASIEU PARISH,LA,70669,WESTLAKE CHEMICAL CORP (83%); ENTERGY CORP (17%),1381135,"C,D,X",1008459,1300 PPG Drive
2020,Eagle Valley Clean Energy,39.64812,-106.943445,Gypsum,EAGLE COUNTY,CO,81637,EVERGREEN CLEAN ENERGY CORP (100%),56,C,1011681,10775 HWY 6
2020,Earl F Wisdom,43.1606,-95.2569,SPENCER,Clay,IA,51301,CORN BELT POWER COOPERATIVE (67%); BASIN ELECTRIC POWER COOPERATIVE (33%),18313,"C,D",1001570,3365 165 AVE
2020,East Bend,38.9031,-84.8511,UNION,Boone,KY,41100,DUKE ENERGY CORP (100%),2476697,D,1001006,6293 BEAVER RD
2020,East River,40.7281,-73.9742,NEW YORK,New York,NY,10009,CONSOLIDATED EDISON INC (100%),2010239,"C,D",1000761,801 EAST 14TH ST
2020,Eastman Chemical - Texas Operations,32.4472,-94.6917,LONGVIEW,Harrison,TX,75602,Eastman Chemical Co (100%),1342134,"C,D,TT,X",1007438,300 KODAK BLVD
2020,Ebensburg Power Company,40.455,-78.7472,Ebensburg,Cambria,PA,15931,EBENSBURG POWER CO (99.5%),469827,"C,D",1008013,2840 New Germany Road
2020,Eckert Station,42.7183,-84.5586,LANSING,Ingham,MI,48910,LANSING BOARD OF WATER & LIGHT (100%),299602,"C,D",1000682,601 ISLAND AVE
2020,Ector County Energy Center,32.070729,-102.587361,Goldsmith,,TX,79741,INVENERGY LLC (100%),408227,"C,D",1011896,8200 OB Holt Road
2020,Eddystone Generating Station,39.858,-75.323,EDDYSTONE,Delaware,PA,19022,EXELON CORP (100%),13110,"C,D",1000898,#1 INDUSTRIAL HWY
2020,Edge Moor,39.7372,-75.5033,WILMINGTON,New Castle,DE,19809,VOLT PARENT LP (100%),116190,"C,D",1001477,200 HAY ROAD
2020,Edgewater (4050),43.715,-87.7094,SHEBOYGAN,Sheboygan,WI,53802,ALLIANT ENERGY CORP (100%),1177277,D,1000983,3739 LAKESHORE DR
2020,Edgewood Energy,40.7861,-73.2931,BRENTWOOD,Suffolk,NY,11717,J POWER USA DEVELOPMENT CO LTD (100%),46589,D,1000267,WEST END CAMPUS ROAD
2020,Edward L Addison Generating Plant,32.911,-84.3059,THOMASTON,Upson,GA,30286,THE SOUTHERN CO (100%),210390,D,1001392,95 Edward L Addison Parkway
2020,Edwardsport,38.8067,-87.2472,EDWARDSPORT,Knox,IN,47500,DUKE ENERGY CORP (100%),2976345,"C,D",1001541,15400 VILLWOCK RD
2020,"Effingham County Power, LLC",32.2792,-81.2842,RINCON,Effingham,GA,31326,EFFINGHAM COUNTY POWER LLC (100%),1119650,"C,D",1000811,3440 MCCALL ROAD
2020,"Eight Flags Energy, LLC",30.662586,-81.469563,Fernandina Beach,NASSAU COUNTY,FL,32034,CHESAPEAKE UTILITIES CORP (100%),97129,C,1012749,22 Gum Street
2020,Eklutna Generation Station,61.475211,-149.15009,Chugiak,MATANUSKA-SUSITNA BOROUGH,AK,99567,MATANUSKA ELECTRIC ASSOC INC (100%),318521,C,1011829,28705 Dena'ina Elders Road
2020,El Centro,32.8022,-115.54,EL CENTRO,Imperial,CA,92243,IMPERIAL IRRIGATION DISTRICT (100%),289158,D,1001454,485 E VILLA AVE
2020,El Segundo,33.9106,-118.425,EL SEGUNDO,Los Angeles,CA,90245,NRG ENERGY INC (100%),190864,D,1000431,301 VISTA DEL MAR
2020,Electrifarm,42.4407,-92.4205,WATERLOO,Black Hawk,IA,50701,BERKSHIRE HATHAWAY INC (100%),2895,C,1000521,3233 WEST SHAULIS RD
2020,"Elgin Energy Center, LLC",41.9997,-88.2445,ELGIN,Cook,IL,60120,ELGIN ENERGY CENTER LLC (100%),238435,"C,D",1000817,1559 GIFFORD ROAD
2020,Elizabeth River Combustion Turbine Sta,36.7743,-76.3119,CHESAPEAKE,Chesapeake (City),VA,23323,DOMINION ENERGY INC (100%),57203,D,1000312,2837 SOUTH MILITARY HWY
2020,Elk River,45.2958,-93.5542,ELK RIVER,Sherburne,MN,55330,GREAT RIVER ENERGY (100%),9195,"C,D",1000211,17845 EAST HIGHWAY 10
2020,Elk Station,33.861807,-101.843823,Abernathy,HALE COUNTY,TX,79311,GOLDEN SPREAD ELECTRIC COOPERATIVE INC (100%),374607,"C,D",1012043,1454 County Road 315
2020,Elm Road Generating Station,42.8445,-87.829,OAK CREEK,Milwaukee,WI,53154,WEC Energy Group Inc (84%); Madison Gas & Electric (8%); WPPI Energy (8%),7025684,"C,D",1000491,10800 S. CHICAGO ROAD
2020,Elmer Smith,37.7958,-87.0597,OWENSBORO,Daviess,KY,42303,OWENSBORO MUNICIPAL UTILITIES (100%),457424,"C,D",1001597,4301 U S HWY 60 E
2020,Elmwood Park Power - LLC,40.9056,-74.1308,ELMWOOD PARK,Bergen,NJ,7407,TALEN ENERGY CORP (100%),660,"C,D",1007297,15 RIVER ROAD
2020,Elwood Energy Facility,41.4388,-88.1236,ELWOOD,Will,IL,60421,J POWER USA DEVELOPMENT CO LTD (100%),237250,"C,D",1001359,24391 PATTERSON RD
2020,Emery Station,43.094,-93.2922,CLEAR LAKE,Cerro Gordo,IA,50428,ALLIANT ENERGY CORP (100%),1069860,"C,D",1000317,11295 230TH ST
2020,Empire District Elec Co Energy Ctr,37.1385,-94.1041,SARCOXIE,Jasper,MO,64862,LIBERTY UTILITIES CO (100%),178733,"C,D",1001046,2537 FIR ROAD
2020,"Empire Generating Co, LLC",42.6296,-73.749,Rensselaer,Rensselaer,NY,12144,EMPIRE ACQUISITION LLC (100%),1154002,D,1007388,"75 Riverside Avenue, PO Box 350"
2020,Emporia Energy Center,38.4464,-96.0651,EMPORIA,LYON COUNTY,KS,66801,EVERGY INC (100%),265890,D,1000583,1685 ROAD 200TH
2020,Encogen Generating Station,48.746,-122.486,Bellingham,WHATCOM COUNTY,WA,98225,PUGET HOLDINGS LLC (100%),178135,D,1006502,915 Cornwall Ave
2020,Energy Center Dover,39.1467,-75.5461,DOVER,Kent,DE,19904,DCO ENERGY LLC (100%),56009,"C,D",1000087,1280 W NORTH ST
2020,Energy Center Harrisburg LLC,40.26582,-76.87643,Harrisburg,DAUPHIN COUNTY,PA,17101,CLEARWAY ENERGY INC (100%),30177,C,1005167,100 North 10th Street
2020,Energy Center Pittsburgh LLC,40.450662,-80.003102,Pittsburgh,ALLEGHENY COUNTY,PA,15212,CLEARWAY ENERGY INC (100%),33164,C,1005798,111 South Commons Avenue
2020,"Ennis Power Company, LLC",32.3194,-96.6739,ENNIS,Ellis,TX,75119,Vistra Corp (100%),378147,D,1001370,4001 WEST ENNIS AVE
2020,Enwave Seattle,47.605772,-122.340619,SEATTLE,KING,WA,98101,BIF II DISTRICT ENERGY HOLDINGS III DELAWARE LLC (100%),63536,C,1002677,1319 WESTERN AVE
2020,Equus Power I,40.6447,-73.5683,FREEPORT,Nassau,NY,11520,J POWER USA DEVELOPMENT CO LTD (100%),33142,D,1000420,289 BUFFALO AVE
2020,Erickson,42.6919,-84.6572,LANSING,Eaton,MI,48917,LANSING BOARD OF WATER & LIGHT (100%),710519,"C,D",1000683,3725 CANAL RD
2020,Escalante,35.4159,-108.082,PREWITT,McKinley,NM,87045,TRI-STATE GENERATION & TRANSMISSION ASSOC INC (100%),654343,"C,D",1001419,COUNTY ROAD 19
2020,"Escondido Energy Center, LLC",33.1261,-117.1172,ESCONDIDO,San Diego,CA,92029,WELLHEAD ELECTRIC CO (100%),7289,D,1000074,1968 DON LEE PLACE
2020,Essex,40.7375,-74.1211,NEWARK,Essex,NJ,7105,PUBLIC SERVICE ENTERPRISE GROUP INC (100%),826,D,1000745,155 RAYMOND BOULEVARD
2020,Essex Power Plant,36.8678,-89.8397,ESSEX,Stoddard,MO,63825,ASSOCIATED ELECTRIC COOPERATIVE INC (100%),57281,D,1006098,24201 STATE HWY E
2020,Evander Andrews Power Complex,43.1794,-115.7328,Mountain Home,Elmore,ID,83647,IDACORP INC (100%),161219,"C,D",1000120,1862 NW Mashburn Road
2020,Exira Station,41.5131,-94.9189,BRAYTON,Audubon,IA,50042,WESTERN MINNESOTA MUNICIPAL POWER AGENCY (100%),46753,"C,D",1000414,3429 JAY AVE
2020,Exxonmobil Beaumont Refinery,30.0639,-94.0703,BEAUMONT,Jefferson,TX,77701,EXXON MOBIL CORP (100%),2005214,"C,D,MM,X,Y",1007959,1795 BURT ST
2020,F B Culley Generating Station,37.91,-87.3267,NEWBURGH,Warrick,IN,47630,CENTERPOINT ENERGY INC (100%),1141833,D,1001544,3700 DARLINGTON ROAD
2020,F.D. Kuester Generating Station,46.50995,-87.52451,Negaunee,MARQUETTE COUNTY,MI,49866,WEC Energy Group Inc (100%),261613,C,1013526,80 Eagle Mills Road
2020,FORNEY POWER PLANT,32.7563,-96.4916,FORNEY,KAUFMAN COUNTY,TX,75126,Vistra Corp (100%),4046364,D,1006085,13770 W US HIGHWAY 80
2020,"Fairless Energy, LLC",40.1464,-74.7406,FAIRLESS HILLS,Bucks,PA,19030,EDGEWATER GENERATION HOLDINGS LLC (100%),2933258,"C,D",1001407,50 Energy Drive
2020,Faribault Energy Park,44.3353,-93.2894,FARIBAULT,Rice,MN,55021,MINNESOTA MUNICIPAL POWER AGENCY (100%),277786,"C,D",1007314,4100 PARK AVE
2020,Federal Research Center at White OAK Central Utility Plant,39.03351,-76.98601,Silver Spring,MONTGOMERY COUNTY,MD,20903,,72937,C,1006938,10902 New Hampshire Ave
2020,Flint Creek Power Plant,36.2561,-94.5241,GENTRY,Benton,AR,72734,AMERICAN ELECTRIC POWER CO INC (50%); ARKANSAS ELECTRIC COOPERATIVE CORP (50%),1910016,D,1007203,21797 SWEPCO PLANT ROAD
2020,Fore River Energy Center,42.2417,-70.9653,WEYMOUTH,Norfolk,MA,2191,VOLT PARENT LP (100%),1339686,"C,D",1001410,9 BRIDGE ST
2020,Fort Churchill,39.1281,-119.1319,YERINGTON,Lyon,NV,89447,BERKSHIRE HATHAWAY INC (100%),391296,"C,D",1007576,1000 SIERRA WAY
2020,Fort Martin Power Station,39.7107,-79.9275,MAIDSVILLE,Monongalia,WV,26541,FIRSTENERGY CORP (100%),4700365,"C,D",1000971,1732 FORT MARTIN DRIVE
2020,Fort Myers,26.6967,-81.7831,FORT MYERS,Lee,FL,33905,NEXTERA ENERGY INC (100%),3667206,"C,D",1001483,10650 STATE ROAD 80
2020,Fort St. Vrain,40.2461,-104.8742,PLATTEVILLE,Weld,CO,80651,XCEL ENERGY INC (100%),1674175,"C,D",1001029,16805 WELD CR 19 12
2020,Fortistar North Tonawanda Inc,43.0483,-78.8539,NORTH TONAWANDA,Niagara,NY,14120,FORTISTAR LLC (100%),9981,"C,D",1001269,1070 ERIE AVE
2020,Fountain Valley Power Plant,38.5569,-104.6875,Fountain,El Paso,CO,80817,SOUTHWEST GENERATION OPERATING CO LLC (100%),97205,"C,D",1007383,18693 Boca Raton Heights
2020,Four Corners Steam Elec Station,36.69,-108.4814,FRUITLAND,San Juan,NM,87416,THE NAVAJO NATION TRIBAL GOVERNMENT (7%); UNS ENERGY CORP (7%); PINNACLE WEST CAPITAL CORP (63%); PNM RESOURCES INC (13%); SALT RIVER PROJECT AGRICULTURAL IMPROVEMENT & POWER DISTRICT (10%),7464686,"C,D",1007245,END OF COUNTY RD 6675
2020,Fox Energy Center,44.3204,-88.2089,Kaukauna,Outagamie,WI,54130,WEC Energy Group Inc (100%),1571420,"C,D",1000421,310 East Frontage Road
2020,Frank Knutson Station,39.9414,-104.6817,COMMERCE CITY,Adams,CO,80022,TRI-STATE GENERATION & TRANSMISSION ASSOC INC (100%),49669,"C,D",1000061,13501 POWHATEN ROAD
2020,Frank M Tait Station,39.7281,-84.2103,MORAINE,Montgomery,OH,45439,ROCKLAND POWER PARTNERS II LP (100%),176743,"C,D",1000246,2101 ARBOR BLVD
2020,Frederickson PSE,47.08187,-122.3649,TACOMA,PIERCE COUNTY,WA,98446,PUGET HOLDINGS LLC (100%),24828,C,1004175,4714 192ND STREET EAST
2020,Frederickson Power LP,47.0864,-122.3644,Tacoma,Pierce,WA,98446,"ATLANTIC POWER CORP (50.15%); PUGET SOUND ENERGY, INC (49.85%)",369130,D,1000301,18610 50Th Ave East
2020,Fredericktown Energy Center,37.5103298,-90.3371889,Fredericktown,,MO,63645,MISSOURI JOINT MUNICIPAL ELECTRIC UTILITY COMMISSION (100%),1169,C,1011885,47 Wulfert Drive
2020,Fredonia Generating Station,48.4553,-122.435,Mount Vernon,SKAGIT COUNTY,WA,98273,PUGET HOLDINGS LLC (100%),151848,"C,D",1004066,13085 Ball Road
2020,Freeport Power Plant No. 2,40.6447,-73.5683,FREEPORT,Nassau,NY,11520,FREEPORT ELECTRIC (100%),6053,"C,D",1000288,289 BUFFALO AVE
2020,Freestone Power Generation,31.8907,-96.1128,FAIRFIELD,Freestone,TX,75840,VOLT PARENT LP (75%); RAYBURN COUNTY ELECTRIC COOP (25%),2618196,"C,D",1001372,1366 FM 488
2020,French Island,43.8298,-91.26,LA CROSSE,La Crosse,WI,54603,XCEL ENERGY INC (100%),38924,C,1000219,200 SOUTH BAINBRIDGE STREET
2020,Front Range Power Plant,38.6281,-104.7069,FOUNTAIN,El Paso,CO,80817,COLORADO SPRINGS UTILITIES (100%),1213477,"C,D",1001400,6615 GENERATION DRIVE
2020,Frontera Generation Facility,26.208,-98.3992,MISSION,Hidalgo,TX,78572,FRONTERA GENERATION LP (100%),1162945,D,1001311,900 S GOODWIN RD
2020,Frontier Generating Station,35.43522,-97.642633,OKLAHOMA CITY,OKLAHOMA COUNTY,OK,73179,OGE ENERGY CORP (100%),97794,"C,D",1006791,7425 SW 29TH ST
2020,Fulton,33.6094,-93.7924,FULTON,Hempstead,AR,71838,ARKANSAS ELECTRIC COOPERATIVE CORP (100%),41400,"C,D",1001152,100 AECC Road
2020,G G Allen,35.1897,-81.0122,BELMONT,Gaston,NC,28012,DUKE ENERGY CORP (100%),531073,"C,D",1000830,253 PLANT ALLEN RD.
2020,GEORGE SULLIVAN PLANT TWO,61.230348,-149.713236,ANCHORAGE,ANCHORAGE MUNICIPALITY,AK,99504,CHUGACH ELECTRIC ASSOC INC (100%),204242,C,1003493,8900 Starview Drive
2020,GOLDEN VALLEY ELECTRIC ASSOC NORTH POLE POWER PLANT,64.735968,-147.348622,NORTH POLE,FAIRBANKS NORTH STAR BOROUGH,AK,99705,GOLDEN VALLEY ELECTRIC ASSOC (100%),294182,C,1001810,1150 H & H LN
2020,GOLDEN VALLEY ELECTRIC ASSOCIATION INC - HEALY POWER PLANT,63.855545,-148.948517,HEALY,DENALI BOROUGH,AK,99743,GOLDEN VALLEY ELECTRIC ASSOC (100%),599591,C,1007068,2.5 Mile HEALY SPUR ROAD
2020,GOLDENDALE GENERATING STATION,45.8114,-120.833,GOLDENDALE,KLICKITAT COUNTY,WA,98620,PUGET HOLDINGS LLC (100%),729468,D,1001436,600 INDUSTRIAL WAY
2020,GSA Central Heating,38.8856,-77.0244,WASHINGTON,,DC,20407,,124360,C,1000088,325 13th STREETS SOUTHWEST
2020,GUAM POWER AUTHORITY - CABRAS POWER PLANT,13.3949,144.7071,PITI,GUAM,GU,96915,GUAM POWER AUTHORITY (100%),614343,C,1007221,322 CABRAS HIGHWAY
2020,Gadsby,40.7686,-111.9289,SALT LAKE CITY,Salt Lake,UT,84104,BERKSHIRE HATHAWAY INC (100%),106971,"C,D",1006811,1407 WEST NORTH TEMPLE REAR
2020,Gadsden,34.0128,-85.9708,GADSDEN,Etowah,AL,35903,THE SOUTHERN CO (100%),50767,"C,D",1007423,1000 GOODYEAR AVE
2020,Gallatin,36.3156,-86.4006,GALLATIN,Sumner,TN,37066,,2591584,"C,D",1007790,1499 STEAM PLANT RD
2020,Galveston Bay Refinery,29.3775,-94.9328,TEXAS CITY,GALVESTON COUNTY,TX,77592,MARATHON PETROLEUM CORP (100%),2603196,"C,D,MM,Y",1005585,2401 5TH AVE S IN TEXAS CITY
2020,Gans Generating Facility,39.7475,-79.8388,Lake Lynn,Fayette,PA,15451,"LS Power Development, LLC (100%)",108549,D,1007454,581 GANS ROAD
2020,Garden City,37.9703,-100.8956,GARDEN CITY,Finney,KS,67846,SUNFLOWER ELECTRIC POWER CORP (100%),9103,"C,D",1001586,2075 W SAINT JOHN ST
2020,Garnet Valley Facility,35.99,-115.09,LAS VEGAS,CLARK COUNTY,NV,89165,BONNEVILLE NEVADA CORP (50%); NSG NEW NEVADA HOLDINGS LLC (50%),356163,C,1002101,11401 I15
2020,Garrison Energy Center,39.182358,-75.503347,Dover,KENT COUNTY,DE,19901,EDGEWATER GENERATION HOLDINGS LLC (100%),597399,D,1012065,"450 Garrison, Oak Dr"
2020,Gaylord Generating Station,45.0045,-84.7217,Gaylord,OTSEGO COUNTY,MI,49735,WOLVERINE POWER SUPPLY COOPERATIVE INC (100%),16178,C,1013559,2700 Millbocker Road
2020,Gen J M Gavin,38.9347,-82.1158,CHESHIRE,Gallia,OH,45620,LIGHTSTONE GENERATION LLC (100%),13677730,"C,D",1001194,OHIO ROUTE 7
2020,Genoa,43.5592,-91.2333,Genoa,Vernon,WI,54632,DAIRYLAND POWER COOPERATIVE (100%),1003949,"C,D",1005775,S4651 State Road 35
2020,George Neal North,42.3251,-96.3797,SERGEANT BLUFF,Woodbury,IA,51054,BERKSHIRE HATHAWAY INC (84.82%); ALLIANT ENERGY CORP (15.18%),927381,"C,D",1001612,1151   260th ST
2020,George Neal South,42.3022,-96.3622,SALIX,Woodbury,IA,51052,CORN BELT POWER COOPERATIVE (9.028%); NORTHWESTERN CORP (8.681%); BERKSHIRE HATHAWAY INC (40.57%); NORTHWEST IOWA POWER COOPERATIVE (4.86%); ALLIANT ENERGY CORP (25.695%); ALGONA MUNICIPAL UTILITIES (2.937%); WEBSTER CITY MUNICIPAL UTILITIES (2.604%); MUNICIPAL ELECTRIC UTILITY OF THE CITY OF CEDAR FALLS IOWA (2.5%); SPENCER MUNICIPAL UTILITIES (1.215%),679201,"C,D",1001117,2761 PORT NEAL CIRCLE
2020,Georgetown Substation,39.9022,-86.2439,INDIANAPOLIS,Marion,IN,46268,AES CORP (50%); INDIANA MUNICIPAL POWER AGENCY (50%),155466,"C,D",1001144,8198 GEORGETOWN ROAD
2020,Gerald Andrus,33.3503,-91.1181,GREENVILLE,Washington,MS,38702,ENTERGY CORP (100%),621137,"C,D",1001189,HWY 82 W
2020,Gerald Gentleman Station,41.0808,-101.1408,SUTHERLAND,Lincoln,NE,69165,NEBRASKA PUBLIC POWER DISTRICT (100%),6627005,"C,D",1006589,6089 SOUTH HWY 25
2020,Gerald Whelan Energy Center,40.5806,-98.3106,HASTINGS,Adams,NE,68902,PUBLIC POWER GENERATION AGENCY (PPGA-WEC2) (75%); CITY OF HASTINGS NEBRASKA (25%),1111600,D,1006654,4520 EAST SOUTH ST
2020,Germantown Power Plant,43.1952,-88.1496,GERMANTOWN,Washington,WI,53022,WEC Energy Group Inc (100%),10836,D,1006633,N96 W192898 COUNTY LINE ROAD
2020,Ghent,38.7497,-85.035,Ghent,CARROLL COUNTY,KY,41045,PPL CORP (100%),9568192,D,1006512,9485 Highway 42 East
2020,Gibbons Creek Steam Electric Station,30.6167,-96.0778,ANDERSON,Grimes,TX,77830,CITY OF GARLAND (47%); CITY OF BRYAN (21.7%); CITY OF DENTON (21.3%); CITY OF GREENVILLE TX (10%),0,"D,DD",1001032,12824 FM244
2020,Gibson,38.3722,-87.7661,OWENSVILLE,Gibson,IN,47665,DUKE ENERGY CORP (90.11%); WABASH VALLEY POWER ASSOC (4.95%); INDIANA MUNICIPAL POWER AGENCY (4.94%),11299796,D,1001030,1097 N 950 W
2020,"Gibson City Energy Center, LLC",40.4705,-88.3987,GIBSON CITY,Ford,IL,60936,ROCKLAND CAPITAL LLC (100%),134250,"C,D",1001361,545 N JORDAN DR
2020,Gila River Power Station,32.9761,-112.694,Gila Bend,Maricopa,AZ,85337,SALT RIVER PROJECT AGRICULTURAL IMPROVEMENT & POWER DISTRICT (50%); UNS ENERGY CORP (50%),4461852,D,1000097,1250 E. Watermelon Road
2020,Gilbert Generating Station,40.5661,-75.165,MILFORD,Hunterdon,NJ,8848,GENON ENERGY INC (100%),13407,"C,D",1000741,315 RIEGELSVILLE RD RTE 627
2020,"Gilroy Energy Center, LLC",36.999,-121.5363,GILROY,Santa Clara,CA,95020,VOLT PARENT LP (100%),18994,D,1000300,1400 PACHECO PASS HWY
2020,"Gilroy Energy Center, LLC for King City",36.225,-121.1278,KING CITY,Monterey,CA,93930,VOLT PARENT LP (100%),6668,D,1000122,51 DON BATES WAY
2020,Gleason Generating Facility,36.2454,-88.612,GLEASON,Weakley,TN,38229,,264291,"C,D",1007660,1166 JAMES MILL ROAD
2020,Glenarm,34.1256,-118.1474,PASADENA,Los Angeles,CA,91105,CITY OF PASADENA (100%),31020,"C,D",1001459,43 EAST STATE ST
2020,Glenwood Landing Energy Center,40.8275,-73.6478,GLENWOOD LANDING,Nassau,NY,11547,NATIONAL GRID USA (100%),60442,D,1001170,SHORE ROAD
2020,Goodman Energy Center,38.931098,-99.354339,Hays,ELLIS COUNTY,KS,67601,MIDWEST ENERGY INC (100%),29951,C,1012016,1713 230th Avenue
2020,Goose Creek Power Plant,40.1083,-88.5986,MONTICELLO,Piatt,IL,61856,AMEREN CORP (100%),14447,"C,D",1000264,760 EAST 2150 NORTH ROAD
2020,Gordon Evans Energy Center,37.7903,-97.5217,Colwich,SEDGWICK COUNTY,KS,67030,EVERGY INC (100%),79504,"C,D",1006735,6001 N 151st West
2020,Gordonsville Power Station,38.1245,-78.2031,GORDONSVILLE,Louisa,VA,22942,DOMINION ENERGY INC (100%),539209,D,1000263,819 Hill Road
2020,Gowanus Generating Station,40.6635,-74.0051,BROOKLYN,Kings,NY,11232,ARCLIGHT CAPITAL HOLDINGS LLC (100%),16637,C,1007017,29TH ST AND 2ND AVE
2020,Graham,33.135,-98.6117,Graham,Young,TX,76450,Vistra Corp (100%),127745,D,1000941,
2020,Grand River Dam Authority,36.1906,-95.2889,CHOUTEAU,Mayes,OK,74337,GRAND RIVER DAM AUTHORITY (100%),1005027,"C,D",1001428,8142 HWY 412B
2020,"Grand Tower Energy Center, LLC",37.6578,-89.5119,GRAND TOWER,Jackson,IL,62942,ROCKLAND CAPITAL LLC (100%),614487,"C,D",1001515,1820 POWER PLANT ROAD
2020,Granite Ridge Energy,42.9043,-71.4251,LONDONDERRY,Rockingham,NH,3053,VOLT PARENT LP (100%),1216571,D,1001345,21 NORTH WENTWORTH AVE
2020,Grant Town Power Plant,39.5611,-80.1642,GRANT TOWN,Marion,WV,26574,AMERICAN BITUMINOUS POWER PARTNERS LP (100%),756872,C,1000251,228 ABPP Drive
2020,Gravel Neck Combustion Turbine,37.1575,-76.6911,SURRY,Surry,VA,23883,DOMINION ENERGY INC (100%),102622,"C,D",1000302,5208 HOG ISLAND ROAD
2020,Grays Ferry Cogen Partnership,39.9417,-75.1883,PHILADELPHIA,Philadelphia,PA,19146,VICINITY ENERGY (100%),692648,"C,D",1001285,2600 CHRISTIAN ST
2020,Grays Harbor Energy Center,46.9688,-123.48,Elma,GRAYS HARBOR COUNTY,WA,98541,INVENERGY LLC (50%); STARK POWER GENERATION I HOLDINGS LLC (50%),979351,"C,D",1000207,401 Keys Rd
2020,Grayson Power Plant,34.1556,-118.2782,GLENDALE,Los Angeles,CA,91201,CITY OF GLENDALE (100%),93710,"C,D",1006628,800 AIR WAY
2020,Greater Des Moines Energy Center,41.5563,-93.5283,PLEASANT HILL,Polk,IA,50317,BERKSHIRE HATHAWAY INC (100%),270792,"C,D",1000223,4401A CARLISLE RD
2020,"Green Country Energy, LLC",35.9833,-95.9346,Jenks,Tulsa,OK,74037,J-POWER USA DEVELOPMENT CO LTD (100%),1667727,"C,D",1006981,12307 S Florence Ave
2020,"Green Power Solutions of Georgia, LLC",32.53669,-82.91048,Dublin,LAURENS COUNTY,GA,31040,GREEN POWER SOLUTIONS OF GEORGIA LLC (52%); WESTROCK CO (48%),143289,C,1013284,507 Academy Avenue
2020,Greene County,32.6017,-87.7811,Forkland,Greene,AL,36740,THE SOUTHERN CO (100%),636250,"C,D",1000364,801 Steam Plant Road
2020,Greenidge Generation LLC,42.6789,-76.9483,DRESDEN,Yates,NY,14441,GREENIDGE GENERATION HOLDINGS LLC (100%),207241,"C,D",1000774,590 PLANT ROAD
2020,Greenland Energy Center,30.1603,-81.5164,Jacksonville,Duval,FL,32256,JEA (100%),333990,"C,D",1000544,6850 Energy Center Drive
2020,Greenleaf Energy Unit 2 LLC,39.142861,-121.636778,Yuba City,SUTTER COUNTY,CA,95993,GREENLEAF ENERGY UNIT 2 LLC (100%),39127,C,1000596,875 North Walton Ave
2020,Greens Bayou,29.8208,-95.2194,HOUSTON,Harris,TX,77049,NRG ENERGY INC (100%),90033,C,1005671,12070 OLD BEAUMONT HIGHWAY
2020,Greensville County Power Station,36.719298,-77.649107,Emporia,GREENSVILLE COUNTY,VA,23847,DOMINION ENERGY INC (100%),3805580,"C,D",1013219,2500 Rogers Rd.
2020,Greenville Electric Gen Station,40.0747,-84.6147,GREENVILLE,Darke,OH,45331,BUCKEYE POWER INC (100%),53874,D,1001373,5119 SEBRING WARNER ROAD
2020,Greenwood,43.1056,-82.6964,AVOCA,Saint Clair,MI,48006,DTE ENERGY CO (100%),584802,"C,D",1001012,7000 KILGORE
2020,Greenwood Generating Station,38.8615,-94.2982,GREENWOOD,Jackson,MO,64034,EVERGY INC (100%),21145,C,1000512,14015 S SMART RD
2020,Gregory Power Facility,27.8881,-97.2572,GREGORY,San Patricio,TX,78359,NRG ENERGY INC (100%),240679,"C,D",1006927,TX HWY 361 EAST @ SAC
2020,Griffith Energy Project,35.0517,-114.1334,GOLDEN VALLEY,Mohave,AZ,86413,ARCLIGHT CAPITAL HOLDINGS LLC (100%),922648,"C,D",1001326,3375 WEST NAVAJO ROAD
2020,Groton Generating Station,45.3718,-98.1032,GROTON,Brown,SD,57445,BASIN ELECTRIC POWER COOPERATIVE (100%),63413,D,1000451,HWY 37
2020,Guadalupe Generating Station,29.6237,-98.1395,MARION,Guadalupe,TX,78124,VOLT PARENT LP (100%),2594047,"C,D",1006040,5740 WEIL ROAD
2020,Gulf Clean Energy Center,30.5661,-87.2289,PENSACOLA,Escambia,FL,32514,NEXTERA ENERGY INC (100%),1146223,D,1006702,11999 PATE ST
2020,H A Wagner LLC,39.1781,-76.5268,Baltimore,Anne Arundel,MD,21226,TALEN ENERGY CORP (100%),111964,"C,D",1005995,3000 Brandon Shores Rd
2020,H B Robinson / Darlington Electric Power Plant,34.4017,-80.1589,HARTSVILLE,Darlington,SC,29550,DUKE ENERGY CORP (100%),4756,"C,D",1000906,3581 WEST ENTRANCE ROAD
2020,H F Lee Steam Electric Plant,35.3775,-78.0875,GOLDSBORO,Wayne,NC,27530,DUKE ENERGY CORP (100%),2310355,"C,D",1000786,1199 Black Jack Church Rd
2020,H L Spurlock,38.7,-83.8175,MAYSVILLE,Mason,KY,41056,EAST KENTUCKY POWER COOPERATIVE INC (100%),6857164,"C,D",1007640,ROUTE 8
2020,H W Pirkey Power Plant,32.4607,-94.4852,HALLSVILLE,Harrison,TX,75650,AMERICAN ELECTRIC POWER CO INC (85.936%); OKLAHOMA MUNICIPAL POWER AUTHORITY (2.344%); NORTHEAST TEXAS ELECTRIC COOPERATIVE (11.72%),2248112,D,1001176,2396 FM RD 3251
2020,HAL C WEAVER POWER PLANT,30.28724,-97.73589,AUSTIN,TRAVIS COUNTY,TX,78713,UNIVERSITY OF TEXAS SYSTEM (100%),197381,C,1003645,215 E 24TH
2020,HAMAKUA ENERGY PARTNERS,20.094083,-155.471028,HONOKAA,HAWAII COUNTY,HI,96727,HAWAIIAN ELECTRIC INDUSTRIES INC (100%),114978,C,1001802,45-300 LEHUA STREET
2020,HAMPTON/NASA STEAM PLANT,37.1006,-76.39072,HAMPTON,HAMPTON CITY,VA,23666,CITY OF HAMPTON (100%),22891,C,1000564,50 WYTHE CREEK ROAD
2020,HANK NIKKELS PLANT ONE,61.22141,-149.86579,ANCHORAGE,ANCHORAGE MUNICIPALITY,AK,99501,CHUGACH ELECTRIC ASSOC INC (100%),6355,C,1003492,821 EAST FIRST AVENUE
2020,HAWAII ELECTRIC LIGHT CO (HELCO) - KANOELEHUA HILL GENERATING STATION,19.70467,-155.06314,HILO,HAWAII COUNTY,HI,96720,HAWAIIAN ELECTRIC INDUSTRIES INC (100%),177928,C,1001552,54 HALEKAUILA STREET
2020,HAWAII ELECTRIC LIGHT CO (HELCO) - KEAHOLE GENERATING STATION,19.716,-156.03327,KAILUA KONA,HAWAII COUNTY,HI,96740,HAWAIIAN ELECTRIC INDUSTRIES INC (100%),271812,C,1001557,73-4249 PUKIAWE ST.
2020,HAWAII ELECTRIC LIGHT CO (HELCO) - PUNA GENERATING STATION,19.6316,-155.0312,KEAAU,HAWAII COUNTY,HI,96749,HAWAIIAN ELECTRIC INDUSTRIES INC (100%),58793,C,1001555,
2020,HAWAIIAN ELECTRIC COMPANY (HECO) - WAIAU GENERATING STATION,21.388997,-157.961171,PEARL CITY,HONOLULU COUNTY,HI,96782,HAWAIIAN ELECTRIC INDUSTRIES INC (100%),628321,C,1007845,475 KAMEHAMEHA HIGHWAY
2020,HAWAIIAN ELECTRIC COMPANY (HECO) CAMPBELL INDUSTRIAL PARK GENERATING STATION,21.310595,-158.10339,KAPOLEI,HONOLULU COUNTY,HI,96707,HAWAIIAN ELECTRIC INDUSTRIES INC (100%),115227,C,1006105,91-196 HANUA ST
2020,HAWAIIAN ELECTRIC COMPANY (HECO) KAHE GENERATING STATION,21.356648,-158.127993,Kapolei,HONOLULU COUNTY,HI,96707,HAWAIIAN ELECTRIC INDUSTRIES INC (100%),1883776,C,1007740,92-200 Farrington Highway
2020,HAWAIIAN ELECTRIC COMPANY (HECO)-HONOLULU GENERATING STATION,21.305722,-157.864111,HONOLULU,HONOLULU COUNTY,HI,96813,HAWAIIAN ELECTRIC INDUSTRIES INC (100%),0,C,1005886,170 ALA MOANA BLVD
2020,HENNEPIN COUNTY ENERGY CENTER,44.97206,-93.25783,MINNEAPOLIS,HENNEPIN COUNTY,MN,55415,CLEARWAY ENERGY INC (100%),31460,C,1005637,600 10TH AVENUE SOUTH
2020,"HERMISTON GENERATING COMPANY, L.P.",45.8042,-119.37,HERMISTON,UMATILLA COUNTY,OR,97838,PACIFICORP (50%); PERENNIAL POWER HOLDINGS INC (50%),940925,D,1003652,78145 WESTLAND RD.
2020,HIBBING PUBLIC UTILITIES COMMISSION,47.429087,-92.935269,HIBBING,ST. LOUIS COUNTY,MN,55746,CITY OF HIBBING (100%),36084,"C,NN",1002484,1832 6TH AVENUE EAST
2020,HIGH SIERRA LIMITED,35.491672,-119.041739,BAKERSFIELD,KERN COUNTY,CA,93308,HIGH SIERRA LTD (100%),12167,C,1002821,10600 OIL FIELD ROAD
2020,Hamilton Liberty LLC,41.7693656,-76.4794435,Towanda,,PA,18848,COGENTRIX ENERGY (100%),1864690,"C,D",1012196,151 Liberty Lane
2020,Hamilton Patriot,41.1889715,-76.8951551,Montgomery,,PA,17752,COGENTRIX ENERGY (100%),2219324,"C,D",1012122,50 Patriot Lane
2020,Handley Generating Station,32.7278,-97.2186,FORT WORTH,Tarrant,TX,76112,EXELON CORP (100%),388204,"C,D",1000942,6604 EAST ROSEDALE ST
2020,Handsome Lake Energy,41.2908,-79.8061,KENNERDELL,Venango,PA,16374,EXELON CORP (100%),80577,D,1001378,173 Cornplanter Lane
2020,Hanford Energy Park Peaker,36.2689,-119.6469,HANFORD,Kings,CA,93230,MIDDLE RIVER POWER LLC (100%),11545,D,1000130,10550 IDAHO AVE
2020,"Hanging Rock Power Company, LLC",38.5731,-82.7833,IRONTON,Lawrence,OH,45638,Vistra Corp (100%),3799342,"C,D",1000153,1395 COUNTY RD 1A
2020,Harbor Generating Station,33.7691,-118.2662,WILMINGTON,Los Angeles,CA,90744,CITY OF LOS ANGELES (100%),40571,D,1001455,161 N ISLAND AVE
2020,Hardee Power Station,27.6364,-81.9636,BOWLING GREEN,Hardee,FL,33834,HARDEE POWER PARTNERS LTD (51%); MARUBENI AMERICA CORP (49%),405443,"C,D",1001254,6695 COUNTY ROAD 663 N
2020,Hardin County Peaking Facility,30.3039,-94.2527,KOUNTZE,Hardin,TX,77625,EAST TEXAS ELECTRIC COOPERATIVE INC (100%),63636,"C,D",1000530,7 MI SOUTHEAST OF KOUNTZE
2020,Hardin Generating Station,45.7578,-107.6,HARDIN,Big Horn,MT,59034,HEOROT POWER HOLDINGS LLC (100%),73045,"C,D",1000157,RT 1 BX 1144A SUGAR FACTORY RD
2020,Harding Street Station (EW Stout),39.7119,-86.1975,INDIANAPOLIS,Marion,IN,46217,AES CORP (100%),974008,"C,D",1001533,3700 SOUTH HARDING ST
2020,Hargis-Hebert Electric Generating Statio,30.1694,-91.9923,LAFAYETTE,Lafayette,LA,70508,LAFAYETTE CITY PARISH CONSOLIDATED GOVERNMENT (100%),13359,"C,D",1007327,300 BEAU PRE ROAD
2020,Harlem River Yard,40.7989,-73.9147,BRONX,Bronx,NY,10454,NEW YORK POWER AUTHORITY (100%),33111,"C,D",1000116,680 780E 132ND ST
2020,Harquahala Generating Company,33.4759,-113.1133,TONOPAH,Maricopa,AZ,85354,KELSON ENERGY (100%),0,D,1000100,2530 NORTH 491 AVE
2020,Harrington Station,35.2972,-101.7475,AMARILLO,Potter,TX,79108,XCEL ENERGY INC (100%),3343224,D,1001042,8400 N LAKESIDE DR
2020,Harrison County Power Project,32.3958,-94.4361,MARSHALL,Harrison,TX,75670,NORTHEAST TEXAS ELECTRIC COOPERATIVE (55%); EAST TEXAS ELECTRIC COOPERATIVE INC (45%),1139205,D,1000145,12039 SH 43 SOUTH
2020,Harrison Power Station,39.3844,-80.3325,HAYWOOD,Harrison,WV,26366,FIRSTENERGY CORP (100%),9741068,"C,D",1007793,ROUTE 20
2020,Harry Allen,36.425,-114.9,LAS VEGAS,Clark,NV,89124,BERKSHIRE HATHAWAY INC (100%),1372492,D,1006804,14601 NORTH LAS VEGAS BLVD
2020,Harry D. Mattison Power Plant,36.1855,-94.2841,TONTITOWN,Washington,AR,72762,AMERICAN ELECTRIC POWER CO INC (100%),36995,D,1000487,3046 West Liberty Avenue
2020,Hartford Hospital Cogeneration Facility,41.7554,-72.67721,Hartford,HARTFORD COUNTY,CT,6106,DCO ENERGY LLC (50%); SOUTH JERSEY INDUSTRIES INC (50%),48921,C,1010343,19 Jefferson St
2020,Hartford Steam - Columbus Plant,41.76182,-72.67019,Hartford,HARTFORD COUNTY,CT,6103,DCO ENERGY LLC (100%),40881,C,1010109,60 Columbus Blvd
2020,Hartwell Energy Facility,34.3387,-82.8207,HARTWELL,Hart,GA,30643,OGLETHORPE POWER CORP (100%),121932,D,1000085,415 SMITH MCGEE HWY
2020,Hawk Road Energy Facility,33.3577,-84.9912,FRANKLIN,Heard,GA,30217,OGLETHORPE POWER CORP (100%),379289,D,1005921,624 HAWK RD
2020,"Hawkeye Energy Greenport, LLC",41.1056,-72.3767,GREENPORT,Suffolk,NY,11944,HAWKEYE ENERGY GREENPORT LLC (100%),40757,D,1000322,1885 MOORE'S LANE
2020,Hawthorn Generating Station,39.1306,-94.4778,KANSAS CITY,Jackson,MO,64120,EVERGY INC (100%),2054722,"C,D",1000705,8700 E. Front Street
2020,Hay Road,39.7436,-75.5072,WILMINGTON,New Castle,DE,19809,VOLT PARENT LP (100%),773604,D,1001082,198 HAY ROAD
2020,Hayden,40.4856,-107.185,HAYDEN,Routt,CO,81639,XCEL ENERGY INC (52.95%); SALT RIVER PROJECT AGRICULTURAL IMPROVEMENT & POWER DISTRICT (29.59%); BERKSHIRE HATHAWAY INC (17.46%),2244671,"C,D",1001466,12795 E YUTE
2020,Haynes Generating Station,33.7639,-118.0942,LONG BEACH,Los Angeles,CA,90803,CITY OF LOS ANGELES (100%),1484937,"C,D",1006097,6801 E 2ND ST
2020,Hays Energy Facility,29.7806,-97.9894,SAN MARCOS,Hays,TX,78666,Vistra Corp (100%),986097,"C,D",1001335,1601 FRANCIS HARRIS LN
2020,"Helix Ironwood, LLC",40.3509,-76.3658,LEBANON,Lebanon,PA,17042,LS POWER EQUITY PARTNERS LP (100%),1937716,"C,D",1007058,305 PRESCOTT ROAD
2020,Hell Gate,40.7988,-73.9093,BRONX,Bronx,NY,10454,NEW YORK POWER AUTHORITY (100%),36399,"C,D",1005913,910 E 134TH ST LOCUST AVE
2020,Henrietta Peaker Plant,36.2397,-119.9044,LEMOORE,Kings,CA,93245,MIDDLE RIVER POWER LLC (100%),17717,D,1000283,16027 25TH AVE
2020,Henry County Generating Station,39.9528,-85.5039,NEW CASTLE,Henry,IN,47362,DUKE ENERGY CORP (100%),157550,D,1001145,6045 WEST SR 38
2020,"Hermiston Power, LLC",45.7934,-119.313,HERMISTON,Umatilla,OR,97838,VOLT PARENT LP (100%),1562465,D,1000788,78910 SIMPLOT ROAD
2020,Hersey Power Plant,43.836848,-85.42409,Hersey,OSCEOLA COUNTY,MI,49639,WOLVERINE POWER SUPPLY COOPERATIVE INC (100%),12660,C,1012840,1529 South 170th Avenue
2020,Hibbard Energy Center,46.7356,-92.1531,DULUTH,St. Louis,MN,55807,ALLETE INC (100%),13759,D,1000688,4913 MAIN ST
2020,Hickory Run Energy Station,40.99311,-80.4371,New Castle,LAWRENCE COUNTY,PA,16102,HICKORY RUN ENERGY LLC (100%),1588060,"C,D",1013542,4900 Edinburg Rd
2020,High Bridge,44.9331,-93.1075,SAINT PAUL,Ramsey,MN,55102,XCEL ENERGY INC (100%),1095296,"C,D",1000690,155 Randolph Road
2020,High Desert Power Project,34.5953,-117.3647,VICTORVILLE,San Bernardino,CA,92394,MIDDLE RIVER POWER LLC (100%),1277972,"C,D",1000070,19000 PERIMETER RD/STE 102
2020,Hillabee Energy Center,33,-85.9031,ALEXANDER CITY,Tallapoosa,AL,35010,EXELON CORP (100%),1987616,"C,D",1000813,152 BRICK PLANT ROAD
2020,Hillburn Gas Turbine,41.1269,-74.1653,Hillburn,ROCKLAND COUNTY,NY,10931,ALLIANCE ENERGY GROUP LLC (100%),207,D,1007157,6 4th street
2020,Hinds Energy Facility,32.3781,-90.2169,JACKSON,Hinds,MS,39213,ENTERGY CORP (100%),1131494,"C,D",1001367,3889 BEASLEY ROAD
2020,Hines Energy Complex,27.7886,-81.8694,BARTOW,Polk,FL,33830,DUKE ENERGY CORP (100%),4450689,D,1001112,7700 COUNTY ROAD 555
2020,Hobbs Generating Station,32.7282,-103.3095,HOBBS,Lea,NM,88240,LEA POWER PARTNERS LLC (100%),1834009,"C,D",1007328,98 N. TWOMBLY LANE
2020,Hog Bayou Energy Center,30.7478,-88.0575,MOBILE,Mobile,AL,36610,"LS Power Development, LLC (100%)",682093,D,1000398,1003 PAPER MILL RD
2020,Holcomb,37.9306,-100.9725,HOLCOMB,Finney,KS,67851,SUNFLOWER ELECTRIC POWER CORP (100%),1452320,"C,D",1001420,2440 HOLCOMB LANE
2020,Holden Power Plant,38.7538,-93.9983,HOLDEN,Johnson,MO,64040,ASSOCIATED ELECTRIC COOPERATIVE INC (100%),149809,"C,D",1007746,100 SW ROUTE 131
2020,Holland Energy Facility,39.2242,-88.7594,BEECHER CITY,Shelby,IL,62414,HOOSIER ENERGY REC INC (50%); WABASH VALLEY POWER ASSOC (50%),914049,"C,D",1000792,2061 East 000 North Road
2020,Holland Energy Park,42.7381514,-86.0733498,Holland,,MI,49423,CITY OF HOLLAND (100%),329175,"C,D",1013054,1 Energy Park Way
2020,Holtsville Facility,40.8153,-73.0664,HOLTSVILLE,Suffolk,NY,11742,NATIONAL GRID USA (100%),51706,"C,D",1001183,MORRIS AVE
2020,Homer City,40.511,-79.1968,HOMER CITY,Indiana,PA,15748,EFS-N LLC (100%),3169142,"C,D",1006728,1750 POWER PLANT ROAD
2020,Hoosier Energy Lawrence Co Station,38.8003,-86.4511,MITCHELL,Lawrence,IN,47446,HOOSIER ENERGY REC INC (100%),31771,D,1000119,1000 S OLD PALESTINE ROAD
2020,Hoot Lake,46.29,-96.0428,FERGUS FALLS,Otter Tail,MN,56537,OTTER TAIL CORP (100%),238057,"C,D",1000694,1012 WATER PLANT ROAD
2020,Hopewell Cogeneration Facility,37.2914,-77.2821,HOPEWELL,Hopewell,VA,23860,Vistra Corp (100%),970898,"C,D",1000318,1114 HERCULES ROAD
2020,Horseshoe Lake,35.5089,-97.1789,HARRAH,Oklahoma,OK,73045,OGE ENERGY CORP (100%),647269,"C,D",1000859,19801 NE 36TH ST
2020,Hot Spring Energy Facility,34.2963,-92.8683,MALVERN,Hot Spring,AR,72104,ENTERGY CORP (100%),466850,"C,D",1000815,696 BLACK BRANCH RD
2020,Houma,29.5808,-90.7222,HOUMA,Terrebonne,LA,70360,TERREBONNE PARISH CONSOLIDATED GOVERNMENT (100%),19343,"C,D",1000529,1551 BARROW ST
2020,Howard M Down,39.4889,-75.0347,VINELAND,Cumberland,NJ,8360,CITY OF VINELAND (100%),35077,"C,D",1000751,211 N WEST AVE
2020,Hugo,34.0158,-95.3206,FORT TOWSON,Choctaw,OK,74735,WESTERN FARMERS ELECTRIC COOPERATIVE (100%),248184,D,1001064,970 N 4335 Rd.
2020,Hummel Station LLC,40.8361,-76.825,Selinsgrove,SNYDER COUNTY,PA,17876,PANDA HUMMEL STATION LLC (100%),2343022,"C,D,DD",1013286,2386 N. Old Trail Road
2020,Hunlock Creek Energy Center,41.2033,-76.0683,HUNLOCK CREEK,Luzerne,PA,18621,UGI CORP (100%),111931,"C,D",1000901,390 ROUTE 11
2020,Hunlock Unit 4,41.2033,-76.0683,HUNLOCK CREEK,Luzerne,PA,18621,UGI CORP (100%),18769,D,1000484,390 STATE RTE 11
2020,Hunter,39.1747,-111.0289,CASTLE DALE,Emery,UT,84513,BERKSHIRE HATHAWAY INC (84.69%); DESERET GENERATION & TRANSMISSION COOPERATIVE (8.37%); UTAH ASSOCIATED MUNICIPAL POWER SYSTEMS (4.86%); UTAH MUNICIPAL POWER AGENCY (2.08%),7906870,D,1001036,UT HWY 10 S OF CASTLE DALE
2020,Hunterstown Combined Cycle,39.8725,-77.1672,GETTYSBURG,Adams,PA,17325,PLATINUM EQUITY ADVISORS LLC (100%),2512185,"C,D",1000475,1731 Hunterstown Road
2020,Huntington,39.3792,-111.0781,HUNTINGTON,Emery,UT,84528,BERKSHIRE HATHAWAY INC (100%),4452385,D,1001193,HWY 31 10 MI W HUNTINGTON
2020,IPL Eagle Valley Generating Station,39.4851,-86.4176,MARTINSVILLE,Morgan,IN,46151,AES CORP (100%),1792523,"C,D",1001534,4040 BLUE BLUFF ROAD
2020,Iatan Generating Station,39.4472,-94.98,WESTON,Platte,MO,64098,EVERGY INC (79.4%); MISSOURI JOINT MUNICIPAL ELECTRIC UTILITY COMMISSION (6.6%); KANSAS ELECTRIC POWER COOPERATIVE INC (2%); LIBERTY UTILITIES CO (12%),6251421,D,1001018,20250 HWY 45 N
2020,Indeck-Corinth Energy Center,43.25,-73.8125,CORINTH,Saratoga,NY,12822,INDECK ENERGY SERVICES INC (100%),169733,"C,D",1001243,24 WHITE ST
2020,Indeck-Olean Energy Center,42.0875,-78.4578,OLEAN,Cattaraugus,NY,14760,INDECK ENERGY SERVICES INC (100%),40410,"C,D",1006205,140 MOORE AVE
2020,Indeck-Oswego Energy Center,43.4682,-76.4965,OSWEGO,Oswego,NY,13126,INDECK ENERGY SERVICES INC (100%),9957,D,1001241,105 MITCHELL ST
2020,Indeck-Silver Springs Energy Center,42.6544,-78.0772,SILVER SPRINGS,Wyoming,NY,14550,INDECK ENERGY SERVICES INC (100%),24767,"C,D",1001240,1 INDECK DRIVE
2020,Indeck-Yerkes Energy Center,42.9671,-78.9182,TONAWANDA,Erie,NY,14150,INDECK ENERGY SERVICES INC (100%),29802,"C,D",1001242,1 SHERIDAN DRIVE
2020,Independence,35.6733,-91.4083,NEWARK,Independence,AR,72562,ENTERGY CORP (47.93%); ARKANSAS ELECTRIC COOPERATIVE CORP (35%); EAST TEXAS ELECTRIC COOPERATIVE INC (3.57%); CONWAY CORP (2%); CITY WATER & LIGHT PLANT OF THE CITY OF JONESBORO (10%); CITY OF WEST MEMPHIS AR (1%),3349950,"C,D",1001059,555 POINT FERRY ROAD
2020,Independence,43.495,-76.4508,OSWEGO,Oswego,NY,13126,Vistra Corp (100%),1605730,"C,D",1000432,76 INDEPENDENCE WAY
2020,Indian River,38.5857,-75.2341,DAGSBORO,Sussex,DE,19939,NRG ENERGY INC (100%),149540,"C,D",1001478,29416 POWER PLANT ROAD
2020,Indigo Generation Facility,33.9114,-116.5533,NORTH PALM SPRINGS,Riverside,CA,92258,MITSUBISHI CORP (AMERICAS) (100%),23593,D,1000128,63500 19TH AVE
2020,Inland Empire Energy Center,33.7393,-117.1701,ROMOLAND,Riverside,CA,92585,GENERAL ELECTRIC CO (100%),0,"C,D",1000469,26226 ANTELOPE RD
2020,Inlet District Energy Center,39.364936,-74.415557,Atlantic City,ATLANTIC COUNTY,NJ,8401,AC OCEAN WALK LLC (100%),247,C,1010692,121 South Massachusetts Avenue
2020,Intercession City Power Plant,28.2628,-81.5486,INTERCESSION CITY,Osceola,FL,33848,DUKE ENERGY CORP (95.48%); THE SOUTHERN CO (4.52%),237564,"C,D",1001188,6525 OSCEOLA POLK LINE ROAD
2020,Intermountain Generating Station,39.5035,-112.5811,DELTA,Millard,UT,84624,Intermountain Power Agency (100%),6276414,"C,D",1005628,850 BRUSH WELLMAN RD
2020,International Station Power Plant,61.168812,-149.911006,Anchorage,ANCHORAGE MUNICIPALITY,AK,99518,CHUGACH ELECTRIC ASSOC INC (100%),461361,C,1010606,6075 Electron Drive
2020,Interstate,39.8233,-89.5888,SPRINGFIELD,Sangamon,IL,62707,CITY OF SPRINGFIELD (100%),19292,D,1001122,3570 RIDGELY ROAD
2020,Inver Hills Generating Plant,44.781,-93.042,Inver Grove Heights,DAKOTA COUNTY,MN,55075,XCEL ENERGY INC (100%),15655,C,1003409,3185 117th Street
2020,"Ironside Energy, LLC",41.65984,-87.46585,East Chicago,LAKE COUNTY,IN,46312,PERC HOLDINGS 1 LLC (100%),49679,C,1003195,3001 Dickey Road
2020,Irvington Generating Station,32.16,-110.9047,TUCSON,Pima,AZ,85714,UNS ENERGY CORP (100%),796963,"C,D",1001425,3950 E IRVINGTON ROAD
2020,Ivanpah Solar Electric Generating Facility,35.556742,-115.470514,Nipton,SAN BERNARDINO COUNTY,CA,92364,NRG ENERGY INC (50.1%); ALPHABET INC (28.1%); BRIGHTSOURCE ENERGY INC (21.8%),80264,"C,D",1011082,100302 Yates Well Road
2020,J D Kennedy,30.3644,-81.6236,JACKSONVILLE,Duval,FL,32206,JEA (100%),70264,"C,D",1001497,4215 TALLEYRAND AVE
2020,J H Campbell,42.9103,-86.2036,WEST OLIVE,Ottawa,MI,49460,CMS ENERGY CORP (96.17%); MICHIGAN PUBLIC POWER AGENCY (2.75%); WOLVERINE POWER SUPPLY COOPERATIVE INC (1.08%),6739157,"C,D",1000670,17000 CROSWELL ST
2020,J K Spruce,29.3091,-98.3205,SAN ANTONIO,Bexar,TX,78223,CPS ENERGY (100%),5754716,"C,D",1007376,12940 S US Hwy 181
2020,J P Madgett,44.3026,-91.9126,Alma,Buffalo,WI,54610,DAIRYLAND POWER COOPERATIVE (100%),1675722,"C,D",1000995,500 Old State Hwy 35
2020,J R Kelly,29.6467,-82.3219,GAINESVILLE,Alachua,FL,32601,CITY OF GAINESVILLE (100%),372845,"C,D",1001496,515 SE 5 AVE
2020,J Robert Massengale Generating Station,33.6039,-101.8408,LUBBOCK,Lubbock,TX,79401,CITY OF LUBBOCK TEXAS (100%),24549,D,1000395,402 Massengale Drive
2020,J.B. Sims Generation Station,43.071111,-86.233889,Grand Haven,OTTAWA COUNTY,MI,49417,GRAND HAVEN BOARD OF LIGHT & POWER (100%),33222,D,1002371,1231 N. Third St.
2020,J.M. Shafer Generating Station,40.0979,-104.7745,FORT LUPTON,Weld,CO,80621,TRI-STATE GENERATION & TRANSMISSION ASSOC INC (100%),374932,"C,D",1000559,6811 Weld County Road #31
2020,Jack County Generation Facility,33.101,-97.9574,JACKSBORO,Jack,TX,76458,BRAZOS ELECTRIC POWER COOPERATIVE INC (100%),1305659,"C,D",1001375,HENDERSON RANCH RD
2020,Jack McDonough,33.8244,-84.475,SMYRNA,Cobb,GA,30080,THE SOUTHERN CO (100%),6880682,"C,D",1001508,5551 SOUTH COBB DRIVE
2020,Jackson Generating Station,42.2488,-84.3767,JACKSON,Jackson,MI,49203,CMS ENERGY CORP (100%),793227,"C,D",1001393,2219 CHAPIN ST
2020,James H Miller Jr,33.6319,-87.0597,Quinton,Jefferson,AL,35130,THE SOUTHERN CO (95.92%); POWERSOUTH ENERGY COOPERATIVE (4.08%),17097799,D,1007227,4250 Porter Road
2020,James River,37.1086,-93.2592,SPRINGFIELD,Greene,MO,65804,CITY UTILITIES OF SPRINGFIELD (100%),90834,"C,D",1000713,5701 S KISSICK
2020,Jasper County Generating Facility,32.3592,-81.1236,HARDEEVILLE,Jasper,SC,29927,DOMINION ENERGY INC (100%),2024327,D,1000277,10719 PURRYSBURG ROAD
2020,Jeffrey Energy Center,39.2825,-96.1153,ST. MARYS,POTTAWATOMIE COUNTY,KS,66536,EVERGY INC (100%),7390324,"C,D",1000581,25905 JEFFREY ROAD
2020,Jim Bridger,41.7378,-108.7875,POINT OF ROCKS,Sweetwater,WY,82942,BERKSHIRE HATHAWAY INC (66.67%); Idaho Power CO (33%),11137049,"C,D",1001192,35 MILES EAST OF ROCK SPRINGS
2020,"John B. Rich Memorial Power Station, Gilberton Power Company",40.79,-76.1984,FRACKVILLE,Schuylkill,PA,17931,GILBERTON POWER CO (100%),897221,"C,D",1001203,81 ELEANOR AVE
2020,John E Amos,38.4731,-81.8233,Winfield,Putnam,WV,25213,AMERICAN ELECTRIC POWER CO INC (100%),10157367,"C,D",1000967,1530 Winfield Road
2020,John S. Cooper,37,-84.5917,SOMERSET,Pulaski,KY,42501,EAST KENTUCKY POWER COOPERATIVE INC (100%),160363,"C,D",1007788,7130 HIGHWAY 1247
2020,John S. Rainey Generating Station,34.3477,-82.776,IVA,Anderson,SC,29655,SOUTH CAROLINA PUBLIC SERVICE AUTHORITY (100%),2419610,D,1001158,2900 OPRY HOUSE ROAD
2020,John Sevier,36.3767,-82.9639,ROGERSVILLE,Hawkins,TN,37857,,1937491,"C,D",1000918,611 Old Hwy 70 S
2020,John Twitty,37.1519,-93.3892,SPRINGFIELD,Greene,MO,65807,CITY UTILITIES OF SPRINGFIELD (100%),1630928,"C,D",1001044,5100 W FARM ROAD 164
2020,John W. Turk Power Plant,33.653167,-93.807056,Fulton,HEMPSTEAD COUNTY,AR,71838,EAST TEXAS ELECTRIC COOPERATIVE INC (8.333%); AMERICAN ELECTRIC POWER CO INC (73.333%); OKLAHOMA MUNICIPAL POWER AUTHORITY (6.667%); ARKANSAS ELECTRIC COOPERATIVE CORP (11.667%),3125444,"C,D",1010604,3711 Highway 355 South
2020,Johnson County Generation Facility,32.3994,-97.4078,CLEBURNE,Johnson,TX,76033,BRAZOS ELECTRIC POWER COOPERATIVE INC (100%),399913,D,1001287,831 SPARKS DR
2020,Johnsonville,36.0278,-87.9861,NEW JOHNSONVILLE,Humphreys,TN,37134,,467486,"C,D",1000919,535 Steam Plant Rd
2020,Joliet 29,41.4947,-88.125,JOLIET,Will,IL,60436,NRG ENERGY INC (100%),620455,"C,D",1001453,1800 CHANNAHON RD
2020,Joliet 9,41.4947,-88.125,JOLIET,Will,IL,60436,NRG ENERGY INC (100%),13848,"C,D",1001519,1601 PATTERSON RD
2020,Jones Station,33.5239,-101.7392,LUBBOCK,Lubbock,TX,79408,XCEL ENERGY INC (100%),1550708,"C,D",1000937,E OF LUBBOCK ON FARM RD 3020
2020,Joppa Steam,37.2103,-88.8606,JOPPA,Massac,IL,62953,DYNEGY INC (80%); Vistra Corp (20%),4034450,"C,D",1000340,2100 PORTLAND ROAD
2020,KALAELOA COGENERATION PLANT,21.301643,-158.096275,KAPOLEI,HONOLULU COUNTY,HI,96707,KALAELOA PARTNERS LP (100%),786628,C,1006670,91-111 KALAELOA BOULEVARD
2020,KAUAI ISLAND UTILITY COOPERATIVE - KAPAIA POWER STATION,21.9786,-159.3422,LIHUE,KAUAI COUNTY,HI,96766,KAUAI ISLAND UTILITY COOPERATIVE (100%),88619,C,1001765,4941-K MAALO RD
2020,"KAUAI ISLAND UTILITY COOPERATIVE, PORT ALLEN GENERATING STATION",21.899556,-159.585194,ELEELE,KAUAI COUNTY,HI,96705,KAUAI ISLAND UTILITY COOPERATIVE (100%),30930,C,1001768,261-A AKAULA RD
2020,KERN FRONT LIMITED,35.498971,-119.038199,BAKERSFIELD,KERN COUNTY,CA,93308,KERN FRONT COGENERATION PL (100%),10262,C,1002543,12241 OILFIELD ROAD
2020,KIAC Cogeneration,40.6417,-73.7778,JAMAICA,Queens,NY,11430,VOLT PARENT LP (100%),236925,"C,D",1001268,JFK AIRPORT BUILDING 49
2020,KLEEN ENERGY SYSTEMS POWER PLANT,41.5526,-72.597,MIDDLETOWN,MIDDLESEX COUNTY,CT,6457,KLEEN ENERGY HOLDINGS LLC (100%),693054,"C,D",1002802,1349 RIVER RD
2020,Kalamazoo River Generating Station,42.2797,-85.4922,COMSTOCK,Kalamazoo,MI,49041,CMS ENERGY CORP (100%),51713,D,1001313,6900 EAST MICHIGAN AVE
2020,Kalkaska Ct Project #1,44.6889,-85.2019,KALKASKA,Kalkaska,MI,49646,MICHIGAN PUBLIC POWER AGENCY (100%),12890,"C,D",1000182,1750 PROUGH ROAD SW
2020,Kearny Generating Station,40.7375,-74.1,KEARNY,Hudson,NJ,7032,PUBLIC SERVICE ENTERPRISE GROUP INC (100%),61636,"C,D",1000747,HACKENSACK AVE
2020,Kemper County,32.7976,-88.6057,DE KALB,Kemper,MS,39328,,153521,"C,D",1001179,221 MARK COBB RD
2020,Kendall Green Energy,42.3633,-71.0792,CAMBRIDGE,Middlesex,MA,2142,Vicinity Energy LLC (100%),717320,"C,D",1000657,265 FIRST ST
2020,Kern River Cogeneration Facility,35.4518,-118.9851,BAKERSFIELD,KERN COUNTY,CA,93308,CHEVRON CORP (100%),298095,"C,DD",1004001,1546 SW China Grade Loop
2020,Kettle Falls Generating Station,48.614625,-118.10147,Kettle Falls,STEVENS COUNTY,WA,99141,AVISTA CORP (100%),1202,"C,TT",1010858,1151 Hwy. 395 North
2020,Key City/Wilmarth Plant,44.196163,-94.003383,Mankato,BLUE EARTH COUNTY,MN,56001,XCEL ENERGY INC (100%),94080,C,1003410,800 Summit Avenue
2020,Keys Energy Center,38.695485,-76.828091,Brandywine,PRINCE GEORGE'S COUNTY,MD,20613,PUBLIC SERVICE ENTERPRISE GROUP INC (100%),1948826,"C,D",1013136,10322 North Keys Road
2020,Keystone,40.6604,-79.3411,SHELOCTA,Armstrong,PA,15774,ARCLIGHT CAPITAL HOLDINGS LLC (67.29%); BOWFIN KEYCON POWER LLC (3.7%); KEYCON POWER HOLDINGS LLC (16.67%); TALEN ENERGY CORP (12.34%),7206235,"C,D",1000883,313 KEYSTONE DRIVE
2020,"Kincaid Generation, LLC",39.5906,-89.4964,KINCAID,Christian,IL,62540,Vistra Corp (100%),1545436,"C,D",1001520,4 MILES WEST OF KINCAID on RT 104
2020,Kings Mountain Energy Center,35.201313,-81.365446,Kings Mountain,CLEVELAND COUNTY,NC,28086,"Castillo Investment Holdings, LLC (8%); CEI Kings Mountain Holdings, LLC (46%); Wattage Finance - NC, LLC (46%)",1066663,"C,D",1013259,181 Gage Road
2020,Kingston,35.8992,-84.5194,KINGSTON,Roane,TN,37763,,1776718,D,1005871,SWAN POND RD
2020,Kinmundy Power Plant,38.7619,-89.0128,PATOKA,Marion,IL,62875,AMEREN CORP (100%),11933,"C,D",1007209,2816 KINOKA ROAD
2020,Klamath Cogeneration Project,42.174,-121.8112,Klamath Falls,Klamath,OR,97603,AVANGRID INC (100%),1117191,"C,D",1001314,4940 Hwy 97 South
2020,Klamath Energy LLC,42.1727,-121.8144,Klamath Falls,Klamath,OR,97603,AVANGRID INC (100%),21947,D,1000076,4940 Hwy 97 South
2020,Kneeland Station,42.35,-71.0583,Boston,Suffolk,MA,2111,VICINITY ENERGY (100%),70098,C,1000092,165 Kneeland St.
2020,Knox Lee Power Plant,32.3766,-94.6415,LONGVIEW,Gregg,TX,75603,AMERICAN ELECTRIC POWER CO INC (100%),91918,D,1000934,306 KNOX LEE
2020,Kyger Creek,38.9161,-82.1281,CHESHIRE,Gallia,OH,45620,AMERICAN ELECTRIC POWER CO INC (100%),4797234,D,1000853,5758 STATE ROUTE 7 NORTH
2020,Kyrene Generating Station,33.3544,-111.9364,TEMPE,Maricopa,AZ,85283,SALT RIVER PROJECT AGRICULTURAL IMPROVEMENT & POWER DISTRICT (100%),618516,"C,D",1000241,7005 S KYRENE RD
2020,L A CO CENTRAL HEATING PLANT,34.05624,-118.24312,LOS ANGELES,LOS ANGELES COUNTY,CA,90012,COUNTY OF LOS ANGELES (100%),41978,C,1002591,301 N. BROADWAY
2020,L V Sutton Steam Electric Plant,34.2824,-77.9864,WILMINGTON,New Hanover,NC,28401,DUKE ENERGY CORP (100%),1569060,"C,D",1000828,801 SUTTON STEAM PLANT ROAD
2020,L'Anse Warden Electric Company LLC,46.756876,-88.455897,L'Anse,BARAGA COUNTY,MI,49946,"Greenwood Sustainable Infrastructure, LLC (100%)",25591,C,1011214,157 S. Main Street
2020,LAS VEGAS GENERATING STATION,36.23228,-115.12474,N LAS VEGAS,CLARK COUNTY,NV,89030,BERKSHIRE HATHAWAY INC (100%),151989,D,1000595,1701 ALEXANDER RD
